{
  "00240": {
    "ciudad": "Alegría-Dulantzi",
    "provincia": "Araba/Álava",
    "pais": "España",
    "lat": -2.71243731,
    "lon": 42.93981158
  },
  "01193": {
    "ciudad": "Vitoria-Gasteiz",
    "provincia": "Araba/Álava",
    "pais": "España",
    "lat": -2.67275685,
    "lon": 42.85058789
  },
  "01450": {
    "ciudad": "Zuia",
    "provincia": "Araba/Álava",
    "pais": "España",
    "lat": -2.81862854,
    "lon": 42.95597763
  },
  "01468": {
    "ciudad": "Amurrio",
    "provincia": "Araba/Álava",
    "pais": "España",
    "lat": -3.00007326,
    "lon": 43.05427776
  },
  "01470": {
    "ciudad": "Ayala/Aiara",
    "provincia": "Araba/Álava",
    "pais": "España",
    "lat": -3.04306746,
    "lon": 43.07768283
  },
  "01160": {
    "ciudad": "Aramaio",
    "provincia": "Araba/Álava",
    "pais": "España",
    "lat": -2.56540037,
    "lon": 43.05119653
  },
  "01165": {
    "ciudad": "Aramaio",
    "provincia": "Araba/Álava",
    "pais": "España",
    "lat": -2.56540037,
    "lon": 43.05119653
  },
  "01169": {
    "ciudad": "Aramaio",
    "provincia": "Araba/Álava",
    "pais": "España",
    "lat": -2.56540037,
    "lon": 43.05119653
  },
  "01474": {
    "ciudad": "Artziniega",
    "provincia": "Araba/Álava",
    "pais": "España",
    "lat": -3.12791718,
    "lon": 43.12084358
  },
  "01478": {
    "ciudad": "Ayala/Aiara",
    "provincia": "Araba/Álava",
    "pais": "España",
    "lat": -3.04306746,
    "lon": 43.07768283
  },
  "01211": {
    "ciudad": "Condado De Treviño",
    "provincia": "Burgos",
    "pais": "España",
    "lat": -2.7474592,
    "lon": 42.73532879
  },
  "01220": {
    "ciudad": "Ribera Baja/Erribera Beitia",
    "provincia": "Araba/Álava",
    "pais": "España",
    "lat": -2.91704002,
    "lon": 42.71339792
  },
  "01510": {
    "ciudad": "Vitoria-Gasteiz",
    "provincia": "Araba/Álava",
    "pais": "España",
    "lat": -2.67275685,
    "lon": 42.85058789
  },
  "01520": {
    "ciudad": "Vitoria-Gasteiz",
    "provincia": "Araba/Álava",
    "pais": "España",
    "lat": -2.67275685,
    "lon": 42.85058789
  },
  "01208": {
    "ciudad": "Zalduondo",
    "provincia": "Araba/Álava",
    "pais": "España",
    "lat": -2.34650825,
    "lon": 42.88580971
  },
  "01250": {
    "ciudad": "Asparrena",
    "provincia": "Araba/Álava",
    "pais": "España",
    "lat": -2.31670754,
    "lon": 42.88968768
  },
  "01260": {
    "ciudad": "Asparrena",
    "provincia": "Araba/Álava",
    "pais": "España",
    "lat": -2.31670754,
    "lon": 42.88968768
  },
  "01408": {
    "ciudad": "Ayala/Aiara",
    "provincia": "Araba/Álava",
    "pais": "España",
    "lat": -3.04306746,
    "lon": 43.07768283
  },
  "01476": {
    "ciudad": "Ayala/Aiara",
    "provincia": "Araba/Álava",
    "pais": "España",
    "lat": -3.04306746,
    "lon": 43.07768283
  },
  "01477": {
    "ciudad": "Ayala/Aiara",
    "provincia": "Araba/Álava",
    "pais": "España",
    "lat": -3.04306746,
    "lon": 43.07768283
  },
  "01479": {
    "ciudad": "Ayala/Aiara",
    "provincia": "Araba/Álava",
    "pais": "España",
    "lat": -3.04306746,
    "lon": 43.07768283
  },
  "01307": {
    "ciudad": "Villabuena De Álava/Eskuernaga",
    "provincia": "Araba/Álava",
    "pais": "España",
    "lat": -2.66452938,
    "lon": 42.54857804
  },
  "01206": {
    "ciudad": "Iruraiz-Gauna",
    "provincia": "Araba/Álava",
    "pais": "España",
    "lat": -2.47396549,
    "lon": 42.83108571
  },
  "01212": {
    "ciudad": "Zambrana",
    "provincia": "Araba/Álava",
    "pais": "España",
    "lat": -2.87806502,
    "lon": 42.66112968
  },
  "01118": {
    "ciudad": "Condado De Treviño",
    "provincia": "Burgos",
    "pais": "España",
    "lat": -2.7474592,
    "lon": 42.73532879
  },
  "01128": {
    "ciudad": "Arraia-Maeztu",
    "provincia": "Araba/Álava",
    "pais": "España",
    "lat": -2.44663872,
    "lon": 42.74000217
  },
  "01194": {
    "ciudad": "Vitoria-Gasteiz",
    "provincia": "Araba/Álava",
    "pais": "España",
    "lat": -2.67275685,
    "lon": 42.85058789
  },
  "01216": {
    "ciudad": "Peñacerrada-Urizaharra",
    "provincia": "Araba/Álava",
    "pais": "España",
    "lat": -2.71402821,
    "lon": 42.64417512
  },
  "01110": {
    "ciudad": "Campezo/Kanpezu",
    "provincia": "Araba/Álava",
    "pais": "España",
    "lat": -2.35207693,
    "lon": 42.66971209
  },
  "01117": {
    "ciudad": "Harana/Valle De Arana",
    "provincia": "Araba/Álava",
    "pais": "España",
    "lat": -2.33104687,
    "lon": 42.75289194
  },
  "01138": {
    "ciudad": "Zigoitia",
    "provincia": "Araba/Álava",
    "pais": "España",
    "lat": -2.73033002,
    "lon": 42.96210609
  },
  "01196": {
    "ciudad": "Vitoria-Gasteiz",
    "provincia": "Araba/Álava",
    "pais": "España",
    "lat": -2.67275685,
    "lon": 42.85058789
  },
  "01308": {
    "ciudad": "Lanciego/Lantziego",
    "provincia": "Araba/Álava",
    "pais": "España",
    "lat": -2.51278162,
    "lon": 42.5624416
  },
  "01430": {
    "ciudad": "Kuartango",
    "provincia": "Araba/Álava",
    "pais": "España",
    "lat": -2.88438243,
    "lon": 42.87006411
  },
  "01439": {
    "ciudad": "Kuartango",
    "provincia": "Araba/Álava",
    "pais": "España",
    "lat": -2.88438243,
    "lon": 42.87006411
  },
  "01192": {
    "ciudad": "Vitoria-Gasteiz",
    "provincia": "Araba/Álava",
    "pais": "España",
    "lat": -2.67275685,
    "lon": 42.85058789
  },
  "01340": {
    "ciudad": "Elciego",
    "provincia": "Araba/Álava",
    "pais": "España",
    "lat": -2.61723872,
    "lon": 42.51420738
  },
  "01309": {
    "ciudad": "Navaridas",
    "provincia": "Araba/Álava",
    "pais": "España",
    "lat": -2.62479544,
    "lon": 42.5450594
  },
  "01207": {
    "ciudad": "San Millán/Donemiliaga",
    "provincia": "Araba/Álava",
    "pais": "España",
    "lat": -2.37748902,
    "lon": 42.87382571
  },
  "01012": {
    "ciudad": "Vitoria-Gasteiz",
    "provincia": "Araba/Álava",
    "pais": "España",
    "lat": -2.67275685,
    "lon": 42.85058789
  },
  "01330": {
    "ciudad": "Labastida/Bastida",
    "provincia": "Araba/Álava",
    "pais": "España",
    "lat": -2.79288705,
    "lon": 42.59076105
  },
  "01300": {
    "ciudad": "Laguardia",
    "provincia": "Araba/Álava",
    "pais": "España",
    "lat": -2.58411693,
    "lon": 42.55236655
  },
  "01321": {
    "ciudad": "Laguardia",
    "provincia": "Araba/Álava",
    "pais": "España",
    "lat": -2.58411693,
    "lon": 42.55236655
  },
  "01306": {
    "ciudad": "Lapuebla De Labarca",
    "provincia": "Araba/Álava",
    "pais": "España",
    "lat": -2.57209001,
    "lon": 42.49441468
  },
  "01400": {
    "ciudad": "Laudio/Llodio",
    "provincia": "Araba/Álava",
    "pais": "España",
    "lat": -2.96256495,
    "lon": 43.1425188
  },
  "01120": {
    "ciudad": "Arraia-Maeztu",
    "provincia": "Araba/Álava",
    "pais": "España",
    "lat": -2.44663872,
    "lon": 42.74000217
  },
  "01129": {
    "ciudad": "Arraia-Maeztu",
    "provincia": "Araba/Álava",
    "pais": "España",
    "lat": -2.44663872,
    "lon": 42.74000217
  },
  "01322": {
    "ciudad": "Yécora/Iekora",
    "provincia": "Araba/Álava",
    "pais": "España",
    "lat": -2.4700849,
    "lon": 42.56923117
  },
  "01409": {
    "ciudad": "Okondo",
    "provincia": "Araba/Álava",
    "pais": "España",
    "lat": -3.019026823,
    "lon": 43.1615513
  },
  "01320": {
    "ciudad": "Oyón-Oion",
    "provincia": "Araba/Álava",
    "pais": "España",
    "lat": -2.43775585,
    "lon": 42.50626162
  },
  "01213": {
    "ciudad": "Lantarón",
    "provincia": "Araba/Álava",
    "pais": "España",
    "lat": -2.96649719,
    "lon": 42.71657557
  },
  "01420": {
    "ciudad": "Erriberagoitia/Ribera Alta",
    "provincia": "Araba/Álava",
    "pais": "España",
    "lat": -2.91080642,
    "lon": 42.80074682
  },
  "01423": {
    "ciudad": "Lantarón",
    "provincia": "Araba/Álava",
    "pais": "España",
    "lat": -2.96649719,
    "lon": 42.71657557
  },
  "01426": {
    "ciudad": "Valdegovía/Gaubea",
    "provincia": "Araba/Álava",
    "pais": "España",
    "lat": -3.09884417,
    "lon": 42.84756896
  },
  "01428": {
    "ciudad": "Iruña Oka/Iruña De Oca",
    "provincia": "Araba/Álava",
    "pais": "España",
    "lat": -2.8147543,
    "lon": 42.81819126
  },
  "01200": {
    "ciudad": "Agurain/Salvatierra",
    "provincia": "Araba/Álava",
    "pais": "España",
    "lat": -2.38874391,
    "lon": 42.85002265
  },
  "01440": {
    "ciudad": "Urkabustaiz",
    "provincia": "Araba/Álava",
    "pais": "España",
    "lat": -2.90661046,
    "lon": 42.95304046
  },
  "01449": {
    "ciudad": "Urkabustaiz",
    "provincia": "Araba/Álava",
    "pais": "España",
    "lat": -2.90661046,
    "lon": 42.95304046
  },
  "01427": {
    "ciudad": "Jurisdicción De San Zadornil",
    "provincia": "Burgos",
    "pais": "España",
    "lat": -3.15676643,
    "lon": 42.84159722
  },
  "01170": {
    "ciudad": "Legutio",
    "provincia": "Araba/Álava",
    "pais": "España",
    "lat": -2.64255929,
    "lon": 42.9798744
  },
  "01171": {
    "ciudad": "Legutio",
    "provincia": "Araba/Álava",
    "pais": "España",
    "lat": -2.64255929,
    "lon": 42.9798744
  },
  "01001": {
    "ciudad": "Vitoria-Gasteiz",
    "provincia": "Araba/Álava",
    "pais": "España",
    "lat": -2.67275685,
    "lon": 42.85058789
  },
  "01002": {
    "ciudad": "Vitoria-Gasteiz",
    "provincia": "Araba/Álava",
    "pais": "España",
    "lat": -2.67275685,
    "lon": 42.85058789
  },
  "01003": {
    "ciudad": "Vitoria-Gasteiz",
    "provincia": "Araba/Álava",
    "pais": "España",
    "lat": -2.67275685,
    "lon": 42.85058789
  },
  "01004": {
    "ciudad": "Vitoria-Gasteiz",
    "provincia": "Araba/Álava",
    "pais": "España",
    "lat": -2.67275685,
    "lon": 42.85058789
  },
  "01005": {
    "ciudad": "Vitoria-Gasteiz",
    "provincia": "Araba/Álava",
    "pais": "España",
    "lat": -2.67275685,
    "lon": 42.85058789
  },
  "01006": {
    "ciudad": "Vitoria-Gasteiz",
    "provincia": "Araba/Álava",
    "pais": "España",
    "lat": -2.67275685,
    "lon": 42.85058789
  },
  "01007": {
    "ciudad": "Vitoria-Gasteiz",
    "provincia": "Araba/Álava",
    "pais": "España",
    "lat": -2.67275685,
    "lon": 42.85058789
  },
  "01008": {
    "ciudad": "Vitoria-Gasteiz",
    "provincia": "Araba/Álava",
    "pais": "España",
    "lat": -2.67275685,
    "lon": 42.85058789
  },
  "01009": {
    "ciudad": "Vitoria-Gasteiz",
    "provincia": "Araba/Álava",
    "pais": "España",
    "lat": -2.67275685,
    "lon": 42.85058789
  },
  "01010": {
    "ciudad": "Vitoria-Gasteiz",
    "provincia": "Araba/Álava",
    "pais": "España",
    "lat": -2.67275685,
    "lon": 42.85058789
  },
  "01013": {
    "ciudad": "Vitoria-Gasteiz",
    "provincia": "Araba/Álava",
    "pais": "España",
    "lat": -2.67275685,
    "lon": 42.85058789
  },
  "01015": {
    "ciudad": "Vitoria-Gasteiz",
    "provincia": "Araba/Álava",
    "pais": "España",
    "lat": -2.67275685,
    "lon": 42.85058789
  },
  "01191": {
    "ciudad": "Iruña Oka/Iruña De Oca",
    "provincia": "Araba/Álava",
    "pais": "España",
    "lat": -2.8147543,
    "lon": 42.81819126
  },
  "01195": {
    "ciudad": "Iruña Oka/Iruña De Oca",
    "provincia": "Araba/Álava",
    "pais": "España",
    "lat": -2.8147543,
    "lon": 42.81819126
  },
  "01130": {
    "ciudad": "Zuia",
    "provincia": "Araba/Álava",
    "pais": "España",
    "lat": -2.81862854,
    "lon": 42.95597763
  },
  "01139": {
    "ciudad": "Zuia",
    "provincia": "Araba/Álava",
    "pais": "España",
    "lat": -2.81862854,
    "lon": 42.95597763
  },
  "01230": {
    "ciudad": "Iruña Oka/Iruña De Oca",
    "provincia": "Araba/Álava",
    "pais": "España",
    "lat": -2.8147543,
    "lon": 42.81819126
  },
  "02250": {
    "ciudad": "Abengibre",
    "provincia": "Albacete",
    "pais": "España",
    "lat": -1.54384487,
    "lon": 39.2100078
  },
  "02152": {
    "ciudad": "Alatoz",
    "provincia": "Albacete",
    "pais": "España",
    "lat": -1.36097604,
    "lon": 39.09494843
  },
  "02001": {
    "ciudad": "Albacete",
    "provincia": "Albacete",
    "pais": "España",
    "lat": -1.85574745,
    "lon": 38.99588053
  },
  "02002": {
    "ciudad": "Albacete",
    "provincia": "Albacete",
    "pais": "España",
    "lat": -1.85574745,
    "lon": 38.99588053
  },
  "02003": {
    "ciudad": "Albacete",
    "provincia": "Albacete",
    "pais": "España",
    "lat": -1.85574745,
    "lon": 38.99588053
  },
  "02004": {
    "ciudad": "Albacete",
    "provincia": "Albacete",
    "pais": "España",
    "lat": -1.85574745,
    "lon": 38.99588053
  },
  "02005": {
    "ciudad": "Albacete",
    "provincia": "Albacete",
    "pais": "España",
    "lat": -1.85574745,
    "lon": 38.99588053
  },
  "02006": {
    "ciudad": "Albacete",
    "provincia": "Albacete",
    "pais": "España",
    "lat": -1.85574745,
    "lon": 38.99588053
  },
  "02008": {
    "ciudad": "Albacete",
    "provincia": "Albacete",
    "pais": "España",
    "lat": -1.85574745,
    "lon": 38.99588053
  },
  "02049": {
    "ciudad": "Albacete",
    "provincia": "Albacete",
    "pais": "España",
    "lat": -1.85574745,
    "lon": 38.99588053
  },
  "02071": {
    "ciudad": "Albacete",
    "provincia": "Albacete",
    "pais": "España",
    "lat": -1.85574745,
    "lon": 38.99588053
  },
  "02099": {
    "ciudad": "Pozo Cañada",
    "provincia": "Albacete",
    "pais": "España",
    "lat": -1.73622317,
    "lon": 38.801361
  },
  "02140": {
    "ciudad": "Albacete",
    "provincia": "Albacete",
    "pais": "España",
    "lat": -1.85574745,
    "lon": 38.99588053
  },
  "02155": {
    "ciudad": "Albacete",
    "provincia": "Albacete",
    "pais": "España",
    "lat": -1.85574745,
    "lon": 38.99588053
  },
  "02328": {
    "ciudad": "Albacete",
    "provincia": "Albacete",
    "pais": "España",
    "lat": -1.85574745,
    "lon": 38.99588053
  },
  "02511": {
    "ciudad": "Albacete",
    "provincia": "Albacete",
    "pais": "España",
    "lat": -1.85574745,
    "lon": 38.99588053
  },
  "02512": {
    "ciudad": "Albacete",
    "provincia": "Albacete",
    "pais": "España",
    "lat": -1.85574745,
    "lon": 38.99588053
  },
  "02653": {
    "ciudad": "Albatana",
    "provincia": "Albacete",
    "pais": "España",
    "lat": -1.52275248,
    "lon": 38.5708754
  },
  "02215": {
    "ciudad": "Villatoya",
    "provincia": "Albacete",
    "pais": "España",
    "lat": -1.33858599,
    "lon": 39.33385264
  },
  "02124": {
    "ciudad": "Liétor",
    "provincia": "Albacete",
    "pais": "España",
    "lat": -1.95479319,
    "lon": 38.54083745
  },
  "02128": {
    "ciudad": "Peñas De San Pedro",
    "provincia": "Albacete",
    "pais": "España",
    "lat": -2.00212787,
    "lon": 38.72688881
  },
  "02210": {
    "ciudad": "Alcalá Del Júcar",
    "provincia": "Albacete",
    "pais": "España",
    "lat": -1.42932697,
    "lon": 39.1932018
  },
  "02211": {
    "ciudad": "Alcalá Del Júcar",
    "provincia": "Albacete",
    "pais": "España",
    "lat": -1.42932697,
    "lon": 39.1932018
  },
  "02214": {
    "ciudad": "Balsa De Ves",
    "provincia": "Albacete",
    "pais": "España",
    "lat": -1.19650012,
    "lon": 39.26461253
  },
  "02252": {
    "ciudad": "Alcalá Del Júcar",
    "provincia": "Albacete",
    "pais": "España",
    "lat": -1.42932697,
    "lon": 39.1932018
  },
  "02300": {
    "ciudad": "Alcaraz",
    "provincia": "Albacete",
    "pais": "España",
    "lat": -2.49034957,
    "lon": 38.66425104
  },
  "02312": {
    "ciudad": "Alcaraz",
    "provincia": "Albacete",
    "pais": "España",
    "lat": -2.49034957,
    "lon": 38.66425104
  },
  "02314": {
    "ciudad": "Peñascosa",
    "provincia": "Albacete",
    "pais": "España",
    "lat": -2.41040499,
    "lon": 38.67153536
  },
  "02330": {
    "ciudad": "Alcaraz",
    "provincia": "Albacete",
    "pais": "España",
    "lat": -2.49034957,
    "lon": 38.66425104
  },
  "02640": {
    "ciudad": "Almansa",
    "provincia": "Albacete",
    "pais": "España",
    "lat": -1.09414681,
    "lon": 38.86968811
  },
  "02690": {
    "ciudad": "Higueruela",
    "provincia": "Albacete",
    "pais": "España",
    "lat": -1.44535609,
    "lon": 38.96455026
  },
  "02125": {
    "ciudad": "Ayna",
    "provincia": "Albacete",
    "pais": "España",
    "lat": -2.07053831,
    "lon": 38.55217746
  },
  "02126": {
    "ciudad": "Ayna",
    "provincia": "Albacete",
    "pais": "España",
    "lat": -2.07053831,
    "lon": 38.55217746
  },
  "02139": {
    "ciudad": "Bogarra",
    "provincia": "Albacete",
    "pais": "España",
    "lat": -2.21253636,
    "lon": 38.58025427
  },
  "02999": {
    "ciudad": "Ayna",
    "provincia": "Albacete",
    "pais": "España",
    "lat": -2.07053831,
    "lon": 38.55217746
  },
  "02320": {
    "ciudad": "Balazote",
    "provincia": "Albacete",
    "pais": "España",
    "lat": -2.15096732,
    "lon": 38.88396156
  },
  "02213": {
    "ciudad": "Villa De Ves",
    "provincia": "Albacete",
    "pais": "España",
    "lat": -1.25897631,
    "lon": 39.22231541
  },
  "02614": {
    "ciudad": "El Ballestero",
    "provincia": "Albacete",
    "pais": "España",
    "lat": -2.45508633,
    "lon": 38.84252196
  },
  "02639": {
    "ciudad": "La Roda",
    "provincia": "Albacete",
    "pais": "España",
    "lat": -2.15924796,
    "lon": 39.20706504
  },
  "02360": {
    "ciudad": "Bienservida",
    "provincia": "Albacete",
    "pais": "España",
    "lat": -2.61184243,
    "lon": 38.51602097
  },
  "02130": {
    "ciudad": "Bogarra",
    "provincia": "Albacete",
    "pais": "España",
    "lat": -2.21253636,
    "lon": 38.58025427
  },
  "02138": {
    "ciudad": "Peñascosa",
    "provincia": "Albacete",
    "pais": "España",
    "lat": -2.41040499,
    "lon": 38.67153536
  },
  "02448": {
    "ciudad": "Molinicos",
    "provincia": "Albacete",
    "pais": "España",
    "lat": -2.23898151,
    "lon": 38.46778179
  },
  "02691": {
    "ciudad": "Bonete",
    "provincia": "Albacete",
    "pais": "España",
    "lat": -1.34830324,
    "lon": 38.86950589
  },
  "02610": {
    "ciudad": "El Bonillo",
    "provincia": "Albacete",
    "pais": "España",
    "lat": -2.54023691,
    "lon": 38.95012362
  },
  "02613": {
    "ciudad": "El Bonillo",
    "provincia": "Albacete",
    "pais": "España",
    "lat": -2.54023691,
    "lon": 38.95012362
  },
  "02153": {
    "ciudad": "Carcelén",
    "provincia": "Albacete",
    "pais": "España",
    "lat": -1.30876708,
    "lon": 39.10231176
  },
  "02151": {
    "ciudad": "Casas De Juan Núñez",
    "provincia": "Albacete",
    "pais": "España",
    "lat": -1.55799035,
    "lon": 39.10160749
  },
  "02329": {
    "ciudad": "Casas De Lázaro",
    "provincia": "Albacete",
    "pais": "España",
    "lat": -2.23922378,
    "lon": 38.7705758
  },
  "02212": {
    "ciudad": "Casas De Ves",
    "provincia": "Albacete",
    "pais": "España",
    "lat": -1.33454992,
    "lon": 39.25946122
  },
  "02200": {
    "ciudad": "Casas-Ibáñez",
    "provincia": "Albacete",
    "pais": "España",
    "lat": -1.47129143,
    "lon": 39.28701686
  },
  "02660": {
    "ciudad": "Caudete",
    "provincia": "Albacete",
    "pais": "España",
    "lat": -0.9886912,
    "lon": 38.70573009
  },
  "02247": {
    "ciudad": "Cenizate",
    "provincia": "Albacete",
    "pais": "España",
    "lat": -1.66113349,
    "lon": 39.30332101
  },
  "02693": {
    "ciudad": "Corral-Rubio",
    "provincia": "Albacete",
    "pais": "España",
    "lat": -1.4608525,
    "lon": 38.83500072
  },
  "02461": {
    "ciudad": "Cotillas",
    "provincia": "Albacete",
    "pais": "España",
    "lat": -2.50574545,
    "lon": 38.43135915
  },
  "02156": {
    "ciudad": "Chinchilla De Monte-Aragón",
    "provincia": "Albacete",
    "pais": "España",
    "lat": -1.72602643,
    "lon": 38.9210968
  },
  "02510": {
    "ciudad": "Pozo Cañada",
    "provincia": "Albacete",
    "pais": "España",
    "lat": -1.73622317,
    "lon": 38.801361
  },
  "02520": {
    "ciudad": "Chinchilla De Monte-Aragón",
    "provincia": "Albacete",
    "pais": "España",
    "lat": -1.72602643,
    "lon": 38.9210968
  },
  "02529": {
    "ciudad": "Chinchilla De Monte-Aragón",
    "provincia": "Albacete",
    "pais": "España",
    "lat": -1.72602643,
    "lon": 38.9210968
  },
  "02692": {
    "ciudad": "Pétrola",
    "provincia": "Albacete",
    "pais": "España",
    "lat": -1.55549981,
    "lon": 38.82629814
  },
  "02695": {
    "ciudad": "Chinchilla De Monte-Aragón",
    "provincia": "Albacete",
    "pais": "España",
    "lat": -1.72602643,
    "lon": 38.9210968
  },
  "02430": {
    "ciudad": "Elche De La Sierra",
    "provincia": "Albacete",
    "pais": "España",
    "lat": -2.04781376,
    "lon": 38.44790893
  },
  "02439": {
    "ciudad": "Elche De La Sierra",
    "provincia": "Albacete",
    "pais": "España",
    "lat": -2.04781376,
    "lon": 38.44790893
  },
  "02449": {
    "ciudad": "Molinicos",
    "provincia": "Albacete",
    "pais": "España",
    "lat": -2.23898151,
    "lon": 38.46778179
  },
  "02470": {
    "ciudad": "Elche De La Sierra",
    "provincia": "Albacete",
    "pais": "España",
    "lat": -2.04781376,
    "lon": 38.44790893
  },
  "02436": {
    "ciudad": "Férez",
    "provincia": "Albacete",
    "pais": "España",
    "lat": -2.00953934,
    "lon": 38.35567013
  },
  "02637": {
    "ciudad": "Fuensanta",
    "provincia": "Albacete",
    "pais": "España",
    "lat": -2.06725219,
    "lon": 39.24466001
  },
  "02651": {
    "ciudad": "Fuente-Álamo",
    "provincia": "Albacete",
    "pais": "España",
    "lat": -1.43170411,
    "lon": 38.69314229
  },
  "02249": {
    "ciudad": "La Recueja",
    "provincia": "Albacete",
    "pais": "España",
    "lat": -1.48988779,
    "lon": 39.17688319
  },
  "02251": {
    "ciudad": "Fuentealbilla",
    "provincia": "Albacete",
    "pais": "España",
    "lat": -1.54879364,
    "lon": 39.26773579
  },
  "02260": {
    "ciudad": "Fuentealbilla",
    "provincia": "Albacete",
    "pais": "España",
    "lat": -1.54879364,
    "lon": 39.26773579
  },
  "02110": {
    "ciudad": "Tarazona De La Mancha",
    "provincia": "Albacete",
    "pais": "España",
    "lat": -1.91280979,
    "lon": 39.26539647
  },
  "02253": {
    "ciudad": "Golosalvo",
    "provincia": "Albacete",
    "pais": "España",
    "lat": -1.63626863,
    "lon": 39.23996013
  },
  "02400": {
    "ciudad": "Hellín",
    "provincia": "Albacete",
    "pais": "España",
    "lat": -1.70344921,
    "lon": 38.51218953
  },
  "02409": {
    "ciudad": "Hellín",
    "provincia": "Albacete",
    "pais": "España",
    "lat": -1.70344921,
    "lon": 38.51218953
  },
  "02420": {
    "ciudad": "Hellín",
    "provincia": "Albacete",
    "pais": "España",
    "lat": -1.70344921,
    "lon": 38.51218953
  },
  "02490": {
    "ciudad": "Hellín",
    "provincia": "Albacete",
    "pais": "España",
    "lat": -1.70344921,
    "lon": 38.51218953
  },
  "02498": {
    "ciudad": "Hellín",
    "provincia": "Albacete",
    "pais": "España",
    "lat": -1.70344921,
    "lon": 38.51218953
  },
  "02499": {
    "ciudad": "Hellín",
    "provincia": "Albacete",
    "pais": "España",
    "lat": -1.70344921,
    "lon": 38.51218953
  },
  "02162": {
    "ciudad": "La Herrera",
    "provincia": "Albacete",
    "pais": "España",
    "lat": -2.12637236,
    "lon": 38.9621774
  },
  "02694": {
    "ciudad": "Higueruela",
    "provincia": "Albacete",
    "pais": "España",
    "lat": -1.44535609,
    "lon": 38.96455026
  },
  "02696": {
    "ciudad": "Hoya-Gonzalo",
    "provincia": "Albacete",
    "pais": "España",
    "lat": -1.55687053,
    "lon": 38.95787352
  },
  "02248": {
    "ciudad": "Jorquera",
    "provincia": "Albacete",
    "pais": "España",
    "lat": -1.52061391,
    "lon": 39.17457441
  },
  "02434": {
    "ciudad": "Letur",
    "provincia": "Albacete",
    "pais": "España",
    "lat": -2.10096881,
    "lon": 38.36632081
  },
  "02160": {
    "ciudad": "Lezuza",
    "provincia": "Albacete",
    "pais": "España",
    "lat": -2.35387427,
    "lon": 38.94878996
  },
  "02161": {
    "ciudad": "Lezuza",
    "provincia": "Albacete",
    "pais": "España",
    "lat": -2.35387427,
    "lon": 38.94878996
  },
  "02142": {
    "ciudad": "Pozohondo",
    "provincia": "Albacete",
    "pais": "España",
    "lat": -1.91133356,
    "lon": 38.721122
  },
  "02410": {
    "ciudad": "Liétor",
    "provincia": "Albacete",
    "pais": "España",
    "lat": -1.95479319,
    "lon": 38.54083745
  },
  "02230": {
    "ciudad": "Madrigueras",
    "provincia": "Albacete",
    "pais": "España",
    "lat": -1.7997012,
    "lon": 39.23680339
  },
  "02240": {
    "ciudad": "Mahora",
    "provincia": "Albacete",
    "pais": "España",
    "lat": -1.72481837,
    "lon": 39.21303088
  },
  "02620": {
    "ciudad": "Minaya",
    "provincia": "Albacete",
    "pais": "España",
    "lat": -2.31961973,
    "lon": 39.27118701
  },
  "02440": {
    "ciudad": "Molinicos",
    "provincia": "Albacete",
    "pais": "España",
    "lat": -2.23898151,
    "lon": 38.46778179
  },
  "02638": {
    "ciudad": "Montalvos",
    "provincia": "Albacete",
    "pais": "España",
    "lat": -2.02769341,
    "lon": 39.16721439
  },
  "02650": {
    "ciudad": "Montealegre Del Castillo",
    "provincia": "Albacete",
    "pais": "España",
    "lat": -1.32487672,
    "lon": 38.78717469
  },
  "02220": {
    "ciudad": "Motilleja",
    "provincia": "Albacete",
    "pais": "España",
    "lat": -1.79025762,
    "lon": 39.17948885
  },
  "02612": {
    "ciudad": "Villarrobledo",
    "provincia": "Albacete",
    "pais": "España",
    "lat": -2.60714311,
    "lon": 39.26755792
  },
  "02246": {
    "ciudad": "Navas De Jorquera",
    "provincia": "Albacete",
    "pais": "España",
    "lat": -1.7189485,
    "lon": 39.28099513
  },
  "02530": {
    "ciudad": "Nerpio",
    "provincia": "Albacete",
    "pais": "España",
    "lat": -2.30224029,
    "lon": 38.14824043
  },
  "02534": {
    "ciudad": "Nerpio",
    "provincia": "Albacete",
    "pais": "España",
    "lat": -2.30224029,
    "lon": 38.14824043
  },
  "02535": {
    "ciudad": "Nerpio",
    "provincia": "Albacete",
    "pais": "España",
    "lat": -2.30224029,
    "lon": 38.14824043
  },
  "02536": {
    "ciudad": "Nerpio",
    "provincia": "Albacete",
    "pais": "España",
    "lat": -2.30224029,
    "lon": 38.14824043
  },
  "02537": {
    "ciudad": "Nerpio",
    "provincia": "Albacete",
    "pais": "España",
    "lat": -2.30224029,
    "lon": 38.14824043
  },
  "02538": {
    "ciudad": "Nerpio",
    "provincia": "Albacete",
    "pais": "España",
    "lat": -2.30224029,
    "lon": 38.14824043
  },
  "02539": {
    "ciudad": "Nerpio",
    "provincia": "Albacete",
    "pais": "España",
    "lat": -2.30224029,
    "lon": 38.14824043
  },
  "02652": {
    "ciudad": "Ontur",
    "provincia": "Albacete",
    "pais": "España",
    "lat": -1.49888166,
    "lon": 38.61472661
  },
  "02611": {
    "ciudad": "Ossa De Montiel",
    "provincia": "Albacete",
    "pais": "España",
    "lat": -2.74272664,
    "lon": 38.96201035
  },
  "02136": {
    "ciudad": "Paterna Del Madera",
    "provincia": "Albacete",
    "pais": "España",
    "lat": -2.34555766,
    "lon": 38.59729435
  },
  "02137": {
    "ciudad": "Paterna Del Madera",
    "provincia": "Albacete",
    "pais": "España",
    "lat": -2.34555766,
    "lon": 38.59729435
  },
  "02459": {
    "ciudad": "Riópar",
    "provincia": "Albacete",
    "pais": "España",
    "lat": -2.41839311,
    "lon": 38.4998099
  },
  "02313": {
    "ciudad": "Peñascosa",
    "provincia": "Albacete",
    "pais": "España",
    "lat": -2.41040499,
    "lon": 38.67153536
  },
  "02120": {
    "ciudad": "Peñas De San Pedro",
    "provincia": "Albacete",
    "pais": "España",
    "lat": -2.00212787,
    "lon": 38.72688881
  },
  "02127": {
    "ciudad": "Peñas De San Pedro",
    "provincia": "Albacete",
    "pais": "España",
    "lat": -2.00212787,
    "lon": 38.72688881
  },
  "02311": {
    "ciudad": "Povedilla",
    "provincia": "Albacete",
    "pais": "España",
    "lat": -2.60393627,
    "lon": 38.70163971
  },
  "02129": {
    "ciudad": "Pozohondo",
    "provincia": "Albacete",
    "pais": "España",
    "lat": -1.91133356,
    "lon": 38.721122
  },
  "02141": {
    "ciudad": "Pozohondo",
    "provincia": "Albacete",
    "pais": "España",
    "lat": -1.91133356,
    "lon": 38.721122
  },
  "02154": {
    "ciudad": "Villavaliente",
    "provincia": "Albacete",
    "pais": "España",
    "lat": -1.45799642,
    "lon": 39.12645758
  },
  "02327": {
    "ciudad": "Pozuelo",
    "provincia": "Albacete",
    "pais": "España",
    "lat": -2.10117384,
    "lon": 38.80969625
  },
  "02450": {
    "ciudad": "Riópar",
    "provincia": "Albacete",
    "pais": "España",
    "lat": -2.41839311,
    "lon": 38.4998099
  },
  "02462": {
    "ciudad": "Villaverde De Guadalimar",
    "provincia": "Albacete",
    "pais": "España",
    "lat": -2.5176095,
    "lon": 38.45619162
  },
  "02331": {
    "ciudad": "Robledo",
    "provincia": "Albacete",
    "pais": "España",
    "lat": -2.44882682,
    "lon": 38.75778452
  },
  "02332": {
    "ciudad": "Robledo",
    "provincia": "Albacete",
    "pais": "España",
    "lat": -2.44882682,
    "lon": 38.75778452
  },
  "02340": {
    "ciudad": "Robledo",
    "provincia": "Albacete",
    "pais": "España",
    "lat": -2.44882682,
    "lon": 38.75778452
  },
  "02630": {
    "ciudad": "La Roda",
    "provincia": "Albacete",
    "pais": "España",
    "lat": -2.15924796,
    "lon": 39.20706504
  },
  "02316": {
    "ciudad": "Salobre",
    "provincia": "Albacete",
    "pais": "España",
    "lat": -2.55057256,
    "lon": 38.59195258
  },
  "02326": {
    "ciudad": "San Pedro",
    "provincia": "Albacete",
    "pais": "España",
    "lat": -2.186211,
    "lon": 38.82654004
  },
  "02435": {
    "ciudad": "Socovos",
    "provincia": "Albacete",
    "pais": "España",
    "lat": -1.98469065,
    "lon": 38.33202632
  },
  "02437": {
    "ciudad": "Socovos",
    "provincia": "Albacete",
    "pais": "España",
    "lat": -1.98469065,
    "lon": 38.33202632
  },
  "02100": {
    "ciudad": "Lezo",
    "provincia": "Gipuzkoa",
    "pais": "España",
    "lat": -1.89972629,
    "lon": 43.32064032
  },
  "02500": {
    "ciudad": "Tobarra",
    "provincia": "Albacete",
    "pais": "España",
    "lat": -1.69282296,
    "lon": 38.5922733
  },
  "02513": {
    "ciudad": "Tobarra",
    "provincia": "Albacete",
    "pais": "España",
    "lat": -1.69282296,
    "lon": 38.5922733
  },
  "02514": {
    "ciudad": "Tobarra",
    "provincia": "Albacete",
    "pais": "España",
    "lat": -1.69282296,
    "lon": 38.5922733
  },
  "02150": {
    "ciudad": "Valdeganga",
    "provincia": "Albacete",
    "pais": "España",
    "lat": -1.67646922,
    "lon": 39.13545152
  },
  "02315": {
    "ciudad": "Vianos",
    "provincia": "Albacete",
    "pais": "España",
    "lat": -2.50149079,
    "lon": 38.632307
  },
  "02636": {
    "ciudad": "Casas De Benítez",
    "provincia": "Cuenca",
    "pais": "España",
    "lat": -2.12822918,
    "lon": 39.36045805
  },
  "02270": {
    "ciudad": "Villamalea",
    "provincia": "Albacete",
    "pais": "España",
    "lat": -1.59908353,
    "lon": 39.36160785
  },
  "02350": {
    "ciudad": "Villapalacios",
    "provincia": "Albacete",
    "pais": "España",
    "lat": -2.63505947,
    "lon": 38.57467359
  },
  "02600": {
    "ciudad": "Villarrobledo",
    "provincia": "Albacete",
    "pais": "España",
    "lat": -2.60714311,
    "lon": 39.26755792
  },
  "02460": {
    "ciudad": "Villaverde De Guadalimar",
    "provincia": "Albacete",
    "pais": "España",
    "lat": -2.5176095,
    "lon": 38.45619162
  },
  "02310": {
    "ciudad": "Viveros",
    "provincia": "Albacete",
    "pais": "España",
    "lat": -2.57590915,
    "lon": 38.77363475
  },
  "02480": {
    "ciudad": "Yeste",
    "provincia": "Albacete",
    "pais": "España",
    "lat": -2.31903072,
    "lon": 38.36643865
  },
  "02482": {
    "ciudad": "Yeste",
    "provincia": "Albacete",
    "pais": "España",
    "lat": -2.31903072,
    "lon": 38.36643865
  },
  "02484": {
    "ciudad": "Yeste",
    "provincia": "Albacete",
    "pais": "España",
    "lat": -2.31903072,
    "lon": 38.36643865
  },
  "02485": {
    "ciudad": "Yeste",
    "provincia": "Albacete",
    "pais": "España",
    "lat": -2.31903072,
    "lon": 38.36643865
  },
  "02486": {
    "ciudad": "Yeste",
    "provincia": "Albacete",
    "pais": "España",
    "lat": -2.31903072,
    "lon": 38.36643865
  },
  "02487": {
    "ciudad": "Yeste",
    "provincia": "Albacete",
    "pais": "España",
    "lat": -2.31903072,
    "lon": 38.36643865
  },
  "02488": {
    "ciudad": "Yeste",
    "provincia": "Albacete",
    "pais": "España",
    "lat": -2.31903072,
    "lon": 38.36643865
  },
  "02489": {
    "ciudad": "Yeste",
    "provincia": "Albacete",
    "pais": "España",
    "lat": -2.31903072,
    "lon": 38.36643865
  },
  "03786": {
    "ciudad": "L'Atzúbia",
    "provincia": "Alicante/Alacant",
    "pais": "España",
    "lat": -0.15173035,
    "lon": 38.84743029
  },
  "03698": {
    "ciudad": "Agost",
    "provincia": "Alicante/Alacant",
    "pais": "España",
    "lat": -0.63891979,
    "lon": 38.43949316
  },
  "03837": {
    "ciudad": "Agres",
    "provincia": "Alicante/Alacant",
    "pais": "España",
    "lat": -0.51595543,
    "lon": 38.78000404
  },
  "03569": {
    "ciudad": "Aigües",
    "provincia": "Alicante/Alacant",
    "pais": "España",
    "lat": -0.36258669,
    "lon": 38.49887092
  },
  "03340": {
    "ciudad": "Albatera",
    "provincia": "Alicante/Alacant",
    "pais": "España",
    "lat": -0.86792141,
    "lon": 38.17894636
  },
  "03723": {
    "ciudad": "Alcalalí",
    "provincia": "Alicante/Alacant",
    "pais": "España",
    "lat": -0.04160798,
    "lon": 38.74965349
  },
  "03728": {
    "ciudad": "Alcalalí",
    "provincia": "Alicante/Alacant",
    "pais": "España",
    "lat": -0.04160798,
    "lon": 38.74965349
  },
  "03841": {
    "ciudad": "Alcocer De Planes",
    "provincia": "Alicante/Alacant",
    "pais": "España",
    "lat": -0.40197036,
    "lon": 38.79447224
  },
  "03814": {
    "ciudad": "Benasau",
    "provincia": "Alicante/Alacant",
    "pais": "España",
    "lat": -0.34261264,
    "lon": 38.68991329
  },
  "03800": {
    "ciudad": "Alcoy/Alcoi",
    "provincia": "Alicante/Alacant",
    "pais": "España",
    "lat": -0.47318376,
    "lon": 38.69836894
  },
  "03801": {
    "ciudad": "Alcoy/Alcoi",
    "provincia": "Alicante/Alacant",
    "pais": "España",
    "lat": -0.47318376,
    "lon": 38.69836894
  },
  "03802": {
    "ciudad": "Alcoy/Alcoi",
    "provincia": "Alicante/Alacant",
    "pais": "España",
    "lat": -0.47318376,
    "lon": 38.69836894
  },
  "03803": {
    "ciudad": "Alcoy/Alcoi",
    "provincia": "Alicante/Alacant",
    "pais": "España",
    "lat": -0.47318376,
    "lon": 38.69836894
  },
  "03804": {
    "ciudad": "Alcoy/Alcoi",
    "provincia": "Alicante/Alacant",
    "pais": "España",
    "lat": -0.47318376,
    "lon": 38.69836894
  },
  "03818": {
    "ciudad": "Alcoy/Alcoi",
    "provincia": "Alicante/Alacant",
    "pais": "España",
    "lat": -0.47318376,
    "lon": 38.69836894
  },
  "03838": {
    "ciudad": "Alfafara",
    "provincia": "Alicante/Alacant",
    "pais": "España",
    "lat": -0.55552339,
    "lon": 38.77274828
  },
  "03580": {
    "ciudad": "L'Alfàs Del Pi",
    "provincia": "Alicante/Alacant",
    "pais": "España",
    "lat": -0.1026002,
    "lon": 38.58009496
  },
  "03581": {
    "ciudad": "L'Alfàs Del Pi",
    "provincia": "Alicante/Alacant",
    "pais": "España",
    "lat": -0.1026002,
    "lon": 38.58009496
  },
  "03169": {
    "ciudad": "Algorfa",
    "provincia": "Alicante/Alacant",
    "pais": "España",
    "lat": -0.79568423,
    "lon": 38.08681637
  },
  "03668": {
    "ciudad": "Algueña",
    "provincia": "Alicante/Alacant",
    "pais": "España",
    "lat": -1.00303745,
    "lon": 38.33800138
  },
  "03001": {
    "ciudad": "Alicante/Alacant",
    "provincia": "Alicante/Alacant",
    "pais": "España",
    "lat": -0.4831832,
    "lon": 38.34548705
  },
  "03002": {
    "ciudad": "Alicante/Alacant",
    "provincia": "Alicante/Alacant",
    "pais": "España",
    "lat": -0.4831832,
    "lon": 38.34548705
  },
  "03003": {
    "ciudad": "Alicante/Alacant",
    "provincia": "Alicante/Alacant",
    "pais": "España",
    "lat": -0.4831832,
    "lon": 38.34548705
  },
  "03004": {
    "ciudad": "Alicante/Alacant",
    "provincia": "Alicante/Alacant",
    "pais": "España",
    "lat": -0.4831832,
    "lon": 38.34548705
  },
  "03005": {
    "ciudad": "Alicante/Alacant",
    "provincia": "Alicante/Alacant",
    "pais": "España",
    "lat": -0.4831832,
    "lon": 38.34548705
  },
  "03006": {
    "ciudad": "Alicante/Alacant",
    "provincia": "Alicante/Alacant",
    "pais": "España",
    "lat": -0.4831832,
    "lon": 38.34548705
  },
  "03007": {
    "ciudad": "Alicante/Alacant",
    "provincia": "Alicante/Alacant",
    "pais": "España",
    "lat": -0.4831832,
    "lon": 38.34548705
  },
  "03008": {
    "ciudad": "Alicante/Alacant",
    "provincia": "Alicante/Alacant",
    "pais": "España",
    "lat": -0.4831832,
    "lon": 38.34548705
  },
  "03009": {
    "ciudad": "Alicante/Alacant",
    "provincia": "Alicante/Alacant",
    "pais": "España",
    "lat": -0.4831832,
    "lon": 38.34548705
  },
  "03010": {
    "ciudad": "Murcia",
    "provincia": "Murcia",
    "pais": "España",
    "lat": -1.1285408,
    "lon": 37.98436361
  },
  "03011": {
    "ciudad": "Alicante/Alacant",
    "provincia": "Alicante/Alacant",
    "pais": "España",
    "lat": -0.4831832,
    "lon": 38.34548705
  },
  "03012": {
    "ciudad": "Alicante/Alacant",
    "provincia": "Alicante/Alacant",
    "pais": "España",
    "lat": -0.4831832,
    "lon": 38.34548705
  },
  "03013": {
    "ciudad": "Alicante/Alacant",
    "provincia": "Alicante/Alacant",
    "pais": "España",
    "lat": -0.4831832,
    "lon": 38.34548705
  },
  "03014": {
    "ciudad": "Alicante/Alacant",
    "provincia": "Alicante/Alacant",
    "pais": "España",
    "lat": -0.4831832,
    "lon": 38.34548705
  },
  "03015": {
    "ciudad": "Alicante/Alacant",
    "provincia": "Alicante/Alacant",
    "pais": "España",
    "lat": -0.4831832,
    "lon": 38.34548705
  },
  "03016": {
    "ciudad": "Alicante/Alacant",
    "provincia": "Alicante/Alacant",
    "pais": "España",
    "lat": -0.4831832,
    "lon": 38.34548705
  },
  "03112": {
    "ciudad": "Alicante/Alacant",
    "provincia": "Alicante/Alacant",
    "pais": "España",
    "lat": -0.4831832,
    "lon": 38.34548705
  },
  "03113": {
    "ciudad": "Alicante/Alacant",
    "provincia": "Alicante/Alacant",
    "pais": "España",
    "lat": -0.4831832,
    "lon": 38.34548705
  },
  "03114": {
    "ciudad": "Alicante/Alacant",
    "provincia": "Alicante/Alacant",
    "pais": "España",
    "lat": -0.4831832,
    "lon": 38.34548705
  },
  "03115": {
    "ciudad": "Alicante/Alacant",
    "provincia": "Alicante/Alacant",
    "pais": "España",
    "lat": -0.4831832,
    "lon": 38.34548705
  },
  "03138": {
    "ciudad": "Alicante/Alacant",
    "provincia": "Alicante/Alacant",
    "pais": "España",
    "lat": -0.4831832,
    "lon": 38.34548705
  },
  "03409": {
    "ciudad": "Villena",
    "provincia": "Alicante/Alacant",
    "pais": "España",
    "lat": -0.86138343,
    "lon": 38.62963811
  },
  "03540": {
    "ciudad": "Alicante/Alacant",
    "provincia": "Alicante/Alacant",
    "pais": "España",
    "lat": -0.4831832,
    "lon": 38.34548705
  },
  "03559": {
    "ciudad": "Alicante/Alacant",
    "provincia": "Alicante/Alacant",
    "pais": "España",
    "lat": -0.4831832,
    "lon": 38.34548705
  },
  "03699": {
    "ciudad": "Alicante/Alacant",
    "provincia": "Alicante/Alacant",
    "pais": "España",
    "lat": -0.4831832,
    "lon": 38.34548705
  },
  "03160": {
    "ciudad": "Almoradí",
    "provincia": "Alicante/Alacant",
    "pais": "España",
    "lat": -0.79201713,
    "lon": 38.10977991
  },
  "03179": {
    "ciudad": "Formentera Del Segura",
    "provincia": "Alicante/Alacant",
    "pais": "España",
    "lat": -0.74649853,
    "lon": 38.08423377
  },
  "03827": {
    "ciudad": "Benimarfull",
    "provincia": "Alicante/Alacant",
    "pais": "España",
    "lat": -0.39099875,
    "lon": 38.77584801
  },
  "03829": {
    "ciudad": "Cocentaina",
    "provincia": "Alicante/Alacant",
    "pais": "España",
    "lat": -0.44022067,
    "lon": 38.74541202
  },
  "03590": {
    "ciudad": "Altea",
    "provincia": "Alicante/Alacant",
    "pais": "España",
    "lat": -0.05144236,
    "lon": 38.59892497
  },
  "03599": {
    "ciudad": "Altea",
    "provincia": "Alicante/Alacant",
    "pais": "España",
    "lat": -0.05144236,
    "lon": 38.59892497
  },
  "03680": {
    "ciudad": "Aspe",
    "provincia": "Alicante/Alacant",
    "pais": "España",
    "lat": -0.76849107,
    "lon": 38.34577266
  },
  "03812": {
    "ciudad": "Millena",
    "provincia": "Alicante/Alacant",
    "pais": "España",
    "lat": -0.36337482,
    "lon": 38.73087323
  },
  "03450": {
    "ciudad": "Banyeres De Mariola",
    "provincia": "Alicante/Alacant",
    "pais": "España",
    "lat": -0.65685684,
    "lon": 38.71635902
  },
  "03460": {
    "ciudad": "Beneixama",
    "provincia": "Alicante/Alacant",
    "pais": "España",
    "lat": -0.76676743,
    "lon": 38.70018533
  },
  "03469": {
    "ciudad": "Campo De Mirra/El Camp De Mirra",
    "provincia": "Alicante/Alacant",
    "pais": "España",
    "lat": -0.77925393,
    "lon": 38.68719624
  },
  "03390": {
    "ciudad": "Benejúzar",
    "provincia": "Alicante/Alacant",
    "pais": "España",
    "lat": -0.83819517,
    "lon": 38.07806375
  },
  "03316": {
    "ciudad": "Orihuela",
    "provincia": "Alicante/Alacant",
    "pais": "España",
    "lat": -0.94664572,
    "lon": 38.08574117
  },
  "03778": {
    "ciudad": "Beniarbeig",
    "provincia": "Alicante/Alacant",
    "pais": "España",
    "lat": -0.00130364,
    "lon": 38.82193219
  },
  "03517": {
    "ciudad": "El Castell De Guadalest",
    "provincia": "Alicante/Alacant",
    "pais": "España",
    "lat": -0.19735239,
    "lon": 38.67694213
  },
  "03850": {
    "ciudad": "Beniarrés",
    "provincia": "Alicante/Alacant",
    "pais": "España",
    "lat": -0.37904234,
    "lon": 38.82007885
  },
  "03794": {
    "ciudad": "Benigembla",
    "provincia": "Alicante/Alacant",
    "pais": "España",
    "lat": -0.10982699,
    "lon": 38.75633514
  },
  "03759": {
    "ciudad": "Benidoleig",
    "provincia": "Alicante/Alacant",
    "pais": "España",
    "lat": -0.03173239,
    "lon": 38.791917
  },
  "03501": {
    "ciudad": "Benidorm",
    "provincia": "Alicante/Alacant",
    "pais": "España",
    "lat": -0.1306853,
    "lon": 38.53427136
  },
  "03502": {
    "ciudad": "Benidorm",
    "provincia": "Alicante/Alacant",
    "pais": "España",
    "lat": -0.1306853,
    "lon": 38.53427136
  },
  "03503": {
    "ciudad": "Benidorm",
    "provincia": "Alicante/Alacant",
    "pais": "España",
    "lat": -0.1306853,
    "lon": 38.53427136
  },
  "03816": {
    "ciudad": "Benifallim",
    "provincia": "Alicante/Alacant",
    "pais": "España",
    "lat": -0.39922559,
    "lon": 38.66273419
  },
  "03178": {
    "ciudad": "Benijófar",
    "provincia": "Alicante/Alacant",
    "pais": "España",
    "lat": -0.73828051,
    "lon": 38.0808408
  },
  "03810": {
    "ciudad": "Benilloba",
    "provincia": "Alicante/Alacant",
    "pais": "España",
    "lat": -0.3908201,
    "lon": 38.69955909
  },
  "03516": {
    "ciudad": "Benimantell",
    "provincia": "Alicante/Alacant",
    "pais": "España",
    "lat": -0.20984798,
    "lon": 38.67659254
  },
  "03769": {
    "ciudad": "Sanet Y Negrals",
    "provincia": "Alicante/Alacant",
    "pais": "España",
    "lat": -0.03373355,
    "lon": 38.81916633
  },
  "03720": {
    "ciudad": "Benissa",
    "provincia": "Alicante/Alacant",
    "pais": "España",
    "lat": 0.05043358,
    "lon": 38.7151969
  },
  "03726": {
    "ciudad": "Benitachell/El Poble Nou De Benitatxell",
    "provincia": "Alicante/Alacant",
    "pais": "España",
    "lat": 0.14459559,
    "lon": 38.73292416
  },
  "03410": {
    "ciudad": "Biar",
    "provincia": "Alicante/Alacant",
    "pais": "España",
    "lat": -0.76597374,
    "lon": 38.62996229
  },
  "03380": {
    "ciudad": "Bigastro",
    "provincia": "Alicante/Alacant",
    "pais": "España",
    "lat": -0.89528476,
    "lon": 38.06301558
  },
  "03518": {
    "ciudad": "Tàrbena",
    "provincia": "Alicante/Alacant",
    "pais": "España",
    "lat": -0.1019394,
    "lon": 38.69363337
  },
  "03111": {
    "ciudad": "Busot",
    "provincia": "Alicante/Alacant",
    "pais": "España",
    "lat": -0.42050568,
    "lon": 38.4819618
  },
  "03710": {
    "ciudad": "Calp",
    "provincia": "Alicante/Alacant",
    "pais": "España",
    "lat": 0.04453809,
    "lon": 38.64526261
  },
  "03510": {
    "ciudad": "Callosa D'En Sarrià",
    "provincia": "Alicante/Alacant",
    "pais": "España",
    "lat": -0.12235041,
    "lon": 38.65164066
  },
  "03317": {
    "ciudad": "Callosa De Segura",
    "provincia": "Alicante/Alacant",
    "pais": "España",
    "lat": -0.87933854,
    "lon": 38.12258136
  },
  "03360": {
    "ciudad": "Callosa De Segura",
    "provincia": "Alicante/Alacant",
    "pais": "España",
    "lat": -0.87933854,
    "lon": 38.12258136
  },
  "03560": {
    "ciudad": "El Campello",
    "provincia": "Alicante/Alacant",
    "pais": "España",
    "lat": -0.40086509,
    "lon": 38.42754724
  },
  "03420": {
    "ciudad": "Castalla",
    "provincia": "Alicante/Alacant",
    "pais": "España",
    "lat": -0.67026538,
    "lon": 38.59657643
  },
  "03793": {
    "ciudad": "Castell De Castells",
    "provincia": "Alicante/Alacant",
    "pais": "España",
    "lat": -0.19391054,
    "lon": 38.72499704
  },
  "03158": {
    "ciudad": "Crevillent",
    "provincia": "Alicante/Alacant",
    "pais": "España",
    "lat": -0.80855322,
    "lon": 38.24881414
  },
  "03820": {
    "ciudad": "Cocentaina",
    "provincia": "Alicante/Alacant",
    "pais": "España",
    "lat": -0.44022067,
    "lon": 38.74541202
  },
  "03350": {
    "ciudad": "Cox",
    "provincia": "Alicante/Alacant",
    "pais": "España",
    "lat": -0.88437585,
    "lon": 38.13972138
  },
  "03330": {
    "ciudad": "Crevillent",
    "provincia": "Alicante/Alacant",
    "pais": "España",
    "lat": -0.80855322,
    "lon": 38.24881414
  },
  "03339": {
    "ciudad": "Crevillent",
    "provincia": "Alicante/Alacant",
    "pais": "España",
    "lat": -0.80855322,
    "lon": 38.24881414
  },
  "03811": {
    "ciudad": "Gorga",
    "provincia": "Alicante/Alacant",
    "pais": "España",
    "lat": -0.35671735,
    "lon": 38.71833445
  },
  "03159": {
    "ciudad": "Daya Nueva",
    "provincia": "Alicante/Alacant",
    "pais": "España",
    "lat": -0.76103525,
    "lon": 38.11371672
  },
  "03177": {
    "ciudad": "San Fulgencio",
    "provincia": "Alicante/Alacant",
    "pais": "España",
    "lat": -0.71879025,
    "lon": 38.11222765
  },
  "03700": {
    "ciudad": "Dénia",
    "provincia": "Alicante/Alacant",
    "pais": "España",
    "lat": 0.10661934,
    "lon": 38.84122705
  },
  "03709": {
    "ciudad": "Dénia",
    "provincia": "Alicante/Alacant",
    "pais": "España",
    "lat": 0.10661934,
    "lon": 38.84122705
  },
  "03749": {
    "ciudad": "Dénia",
    "provincia": "Alicante/Alacant",
    "pais": "España",
    "lat": 0.10661934,
    "lon": 38.84122705
  },
  "03770": {
    "ciudad": "El Verger",
    "provincia": "Alicante/Alacant",
    "pais": "España",
    "lat": 0.01012098,
    "lon": 38.84290338
  },
  "03780": {
    "ciudad": "Pego",
    "provincia": "Alicante/Alacant",
    "pais": "España",
    "lat": -0.11803172,
    "lon": 38.84201714
  },
  "03150": {
    "ciudad": "Dolores",
    "provincia": "Alicante/Alacant",
    "pais": "España",
    "lat": -0.76969869,
    "lon": 38.13897736
  },
  "03139": {
    "ciudad": "Elche/Elx",
    "provincia": "Alicante/Alacant",
    "pais": "España",
    "lat": -0.69775581,
    "lon": 38.26741662
  },
  "03194": {
    "ciudad": "Elche/Elx",
    "provincia": "Alicante/Alacant",
    "pais": "España",
    "lat": -0.69775581,
    "lon": 38.26741662
  },
  "03195": {
    "ciudad": "Elche/Elx",
    "provincia": "Alicante/Alacant",
    "pais": "España",
    "lat": -0.69775581,
    "lon": 38.26741662
  },
  "03201": {
    "ciudad": "Elche/Elx",
    "provincia": "Alicante/Alacant",
    "pais": "España",
    "lat": -0.69775581,
    "lon": 38.26741662
  },
  "03202": {
    "ciudad": "Elche/Elx",
    "provincia": "Alicante/Alacant",
    "pais": "España",
    "lat": -0.69775581,
    "lon": 38.26741662
  },
  "03203": {
    "ciudad": "Elche/Elx",
    "provincia": "Alicante/Alacant",
    "pais": "España",
    "lat": -0.69775581,
    "lon": 38.26741662
  },
  "03204": {
    "ciudad": "Elche/Elx",
    "provincia": "Alicante/Alacant",
    "pais": "España",
    "lat": -0.69775581,
    "lon": 38.26741662
  },
  "03205": {
    "ciudad": "Elche/Elx",
    "provincia": "Alicante/Alacant",
    "pais": "España",
    "lat": -0.69775581,
    "lon": 38.26741662
  },
  "03206": {
    "ciudad": "Elche/Elx",
    "provincia": "Alicante/Alacant",
    "pais": "España",
    "lat": -0.69775581,
    "lon": 38.26741662
  },
  "03207": {
    "ciudad": "Elche/Elx",
    "provincia": "Alicante/Alacant",
    "pais": "España",
    "lat": -0.69775581,
    "lon": 38.26741662
  },
  "03208": {
    "ciudad": "Elche/Elx",
    "provincia": "Alicante/Alacant",
    "pais": "España",
    "lat": -0.69775581,
    "lon": 38.26741662
  },
  "03290": {
    "ciudad": "Elche/Elx",
    "provincia": "Alicante/Alacant",
    "pais": "España",
    "lat": -0.69775581,
    "lon": 38.26741662
  },
  "03291": {
    "ciudad": "Elche/Elx",
    "provincia": "Alicante/Alacant",
    "pais": "España",
    "lat": -0.69775581,
    "lon": 38.26741662
  },
  "03292": {
    "ciudad": "Elche/Elx",
    "provincia": "Alicante/Alacant",
    "pais": "España",
    "lat": -0.69775581,
    "lon": 38.26741662
  },
  "03293": {
    "ciudad": "Elche/Elx",
    "provincia": "Alicante/Alacant",
    "pais": "España",
    "lat": -0.69775581,
    "lon": 38.26741662
  },
  "03294": {
    "ciudad": "Elche/Elx",
    "provincia": "Alicante/Alacant",
    "pais": "España",
    "lat": -0.69775581,
    "lon": 38.26741662
  },
  "03295": {
    "ciudad": "Elche/Elx",
    "provincia": "Alicante/Alacant",
    "pais": "España",
    "lat": -0.69775581,
    "lon": 38.26741662
  },
  "03296": {
    "ciudad": "Elche/Elx",
    "provincia": "Alicante/Alacant",
    "pais": "España",
    "lat": -0.69775581,
    "lon": 38.26741662
  },
  "03320": {
    "ciudad": "Elche/Elx",
    "provincia": "Alicante/Alacant",
    "pais": "España",
    "lat": -0.69775581,
    "lon": 38.26741662
  },
  "03600": {
    "ciudad": "Elda",
    "provincia": "Alicante/Alacant",
    "pais": "España",
    "lat": -0.79611046,
    "lon": 38.47878894
  },
  "03813": {
    "ciudad": "Tollos",
    "provincia": "Alicante/Alacant",
    "pais": "España",
    "lat": -0.27417974,
    "lon": 38.75700785
  },
  "03509": {
    "ciudad": "Finestrat",
    "provincia": "Alicante/Alacant",
    "pais": "España",
    "lat": -0.2117688,
    "lon": 38.56697349
  },
  "03740": {
    "ciudad": "Gata De Gorgos",
    "provincia": "Alicante/Alacant",
    "pais": "España",
    "lat": 0.08427495,
    "lon": 38.7732101
  },
  "03840": {
    "ciudad": "Gaianes",
    "provincia": "Alicante/Alacant",
    "pais": "España",
    "lat": -0.40755768,
    "lon": 38.81311114
  },
  "03348": {
    "ciudad": "Granja De Rocamora",
    "provincia": "Alicante/Alacant",
    "pais": "España",
    "lat": -0.89001674,
    "lon": 38.15262779
  },
  "03140": {
    "ciudad": "Guardamar Del Segura",
    "provincia": "Alicante/Alacant",
    "pais": "España",
    "lat": -0.65477035,
    "lon": 38.08988071
  },
  "03688": {
    "ciudad": "El Fondó De Les Neus/Hondón De Las Nieves",
    "provincia": "Alicante/Alacant",
    "pais": "España",
    "lat": -0.85486637,
    "lon": 38.30855695
  },
  "03689": {
    "ciudad": "Orihuela",
    "provincia": "Alicante/Alacant",
    "pais": "España",
    "lat": -0.94664572,
    "lon": 38.08574117
  },
  "03440": {
    "ciudad": "Ibi",
    "provincia": "Alicante/Alacant",
    "pais": "España",
    "lat": -0.57466482,
    "lon": 38.62745682
  },
  "03310": {
    "ciudad": "Orihuela",
    "provincia": "Alicante/Alacant",
    "pais": "España",
    "lat": -0.94664572,
    "lon": 38.08574117
  },
  "03727": {
    "ciudad": "Xaló",
    "provincia": "Alicante/Alacant",
    "pais": "España",
    "lat": -0.01192072,
    "lon": 38.74069906
  },
  "03730": {
    "ciudad": "Jávea/Xàbia",
    "provincia": "Alicante/Alacant",
    "pais": "España",
    "lat": 0.16340067,
    "lon": 38.78925837
  },
  "03737": {
    "ciudad": "Jávea/Xàbia",
    "provincia": "Alicante/Alacant",
    "pais": "España",
    "lat": 0.16340067,
    "lon": 38.78925837
  },
  "03738": {
    "ciudad": "Jávea/Xàbia",
    "provincia": "Alicante/Alacant",
    "pais": "España",
    "lat": 0.16340067,
    "lon": 38.78925837
  },
  "03739": {
    "ciudad": "Jávea/Xàbia",
    "provincia": "Alicante/Alacant",
    "pais": "España",
    "lat": 0.16340067,
    "lon": 38.78925837
  },
  "03100": {
    "ciudad": "Jijona/Xixona",
    "provincia": "Alicante/Alacant",
    "pais": "España",
    "lat": -0.50791278,
    "lon": 38.53902509
  },
  "03860": {
    "ciudad": "Lorcha/L'Orxa",
    "provincia": "Alicante/Alacant",
    "pais": "España",
    "lat": -0.31125116,
    "lon": 38.84403413
  },
  "03729": {
    "ciudad": "Senija",
    "provincia": "Alicante/Alacant",
    "pais": "España",
    "lat": 0.04175328,
    "lon": 38.72826598
  },
  "03670": {
    "ciudad": "Monforte Del Cid",
    "provincia": "Alicante/Alacant",
    "pais": "España",
    "lat": -0.72989187,
    "lon": 38.37928097
  },
  "03679": {
    "ciudad": "Monforte Del Cid",
    "provincia": "Alicante/Alacant",
    "pais": "España",
    "lat": -0.72989187,
    "lon": 38.37928097
  },
  "03640": {
    "ciudad": "Monóvar/Monòver",
    "provincia": "Alicante/Alacant",
    "pais": "España",
    "lat": -0.83780533,
    "lon": 38.43721579
  },
  "03649": {
    "ciudad": "Monóvar/Monòver",
    "provincia": "Alicante/Alacant",
    "pais": "España",
    "lat": -0.83780533,
    "lon": 38.43721579
  },
  "03110": {
    "ciudad": "Mutxamel",
    "provincia": "Alicante/Alacant",
    "pais": "España",
    "lat": -0.44522331,
    "lon": 38.41368396
  },
  "03792": {
    "ciudad": "Parcent",
    "provincia": "Alicante/Alacant",
    "pais": "España",
    "lat": -0.06446788,
    "lon": 38.74571695
  },
  "03830": {
    "ciudad": "Muro De Alcoy",
    "provincia": "Alicante/Alacant",
    "pais": "España",
    "lat": -0.4357044,
    "lon": 38.77998192
  },
  "03839": {
    "ciudad": "Muro De Alcoy",
    "provincia": "Alicante/Alacant",
    "pais": "España",
    "lat": -0.4357044,
    "lon": 38.77998192
  },
  "03660": {
    "ciudad": "Novelda",
    "provincia": "Alicante/Alacant",
    "pais": "España",
    "lat": -0.76539782,
    "lon": 38.38606382
  },
  "03530": {
    "ciudad": "La Nucia",
    "provincia": "Alicante/Alacant",
    "pais": "España",
    "lat": -0.12289748,
    "lon": 38.61761623
  },
  "03760": {
    "ciudad": "Ondara",
    "provincia": "Alicante/Alacant",
    "pais": "España",
    "lat": 0.01764367,
    "lon": 38.82692459
  },
  "03430": {
    "ciudad": "Onil",
    "provincia": "Alicante/Alacant",
    "pais": "España",
    "lat": -0.6740463,
    "lon": 38.62952092
  },
  "03790": {
    "ciudad": "Orba",
    "provincia": "Alicante/Alacant",
    "pais": "España",
    "lat": -0.06371253,
    "lon": 38.78039233
  },
  "03791": {
    "ciudad": "La Vall De Laguar",
    "provincia": "Alicante/Alacant",
    "pais": "España",
    "lat": -0.10944662,
    "lon": 38.77743427
  },
  "03795": {
    "ciudad": "Tormos",
    "provincia": "Alicante/Alacant",
    "pais": "España",
    "lat": -0.0723226,
    "lon": 38.80205024
  },
  "03579": {
    "ciudad": "Sella",
    "provincia": "Alicante/Alacant",
    "pais": "España",
    "lat": -0.27218087,
    "lon": 38.60812245
  },
  "03189": {
    "ciudad": "Orihuela",
    "provincia": "Alicante/Alacant",
    "pais": "España",
    "lat": -0.94664572,
    "lon": 38.08574117
  },
  "03191": {
    "ciudad": "Pilar De La Horadada",
    "provincia": "Alicante/Alacant",
    "pais": "España",
    "lat": -0.79242783,
    "lon": 37.86372554
  },
  "03192": {
    "ciudad": "Orihuela",
    "provincia": "Alicante/Alacant",
    "pais": "España",
    "lat": -0.94664572,
    "lon": 38.08574117
  },
  "03300": {
    "ciudad": "Orihuela",
    "provincia": "Alicante/Alacant",
    "pais": "España",
    "lat": -0.94664572,
    "lon": 38.08574117
  },
  "03311": {
    "ciudad": "Orihuela",
    "provincia": "Alicante/Alacant",
    "pais": "España",
    "lat": -0.94664572,
    "lon": 38.08574117
  },
  "03312": {
    "ciudad": "Orihuela",
    "provincia": "Alicante/Alacant",
    "pais": "España",
    "lat": -0.94664572,
    "lon": 38.08574117
  },
  "03313": {
    "ciudad": "Orihuela",
    "provincia": "Alicante/Alacant",
    "pais": "España",
    "lat": -0.94664572,
    "lon": 38.08574117
  },
  "03314": {
    "ciudad": "Orihuela",
    "provincia": "Alicante/Alacant",
    "pais": "España",
    "lat": -0.94664572,
    "lon": 38.08574117
  },
  "03315": {
    "ciudad": "Orihuela",
    "provincia": "Alicante/Alacant",
    "pais": "España",
    "lat": -0.94664572,
    "lon": 38.08574117
  },
  "03369": {
    "ciudad": "Rafal",
    "provincia": "Alicante/Alacant",
    "pais": "España",
    "lat": -0.84889051,
    "lon": 38.10480713
  },
  "03750": {
    "ciudad": "Pedreguer",
    "provincia": "Alicante/Alacant",
    "pais": "España",
    "lat": 0.03432468,
    "lon": 38.7935383
  },
  "03815": {
    "ciudad": "Penàguila",
    "provincia": "Alicante/Alacant",
    "pais": "España",
    "lat": -0.35881625,
    "lon": 38.67944195
  },
  "03610": {
    "ciudad": "Petrer",
    "provincia": "Alicante/Alacant",
    "pais": "España",
    "lat": -0.76953712,
    "lon": 38.48480043
  },
  "03650": {
    "ciudad": "El Pinós/Pinoso",
    "provincia": "Alicante/Alacant",
    "pais": "España",
    "lat": -1.04195399,
    "lon": 38.40441177
  },
  "03657": {
    "ciudad": "Yecla",
    "provincia": "Murcia",
    "pais": "España",
    "lat": -1.11531939,
    "lon": 38.6134178
  },
  "03658": {
    "ciudad": "Salinas",
    "provincia": "Alicante/Alacant",
    "pais": "España",
    "lat": -0.91278122,
    "lon": 38.52006995
  },
  "03659": {
    "ciudad": "Jumilla",
    "provincia": "Murcia",
    "pais": "España",
    "lat": -1.32702475,
    "lon": 38.47617313
  },
  "03828": {
    "ciudad": "Planes",
    "provincia": "Alicante/Alacant",
    "pais": "España",
    "lat": -0.34478535,
    "lon": 38.78583429
  },
  "03520": {
    "ciudad": "Polop",
    "provincia": "Alicante/Alacant",
    "pais": "España",
    "lat": -0.12654723,
    "lon": 38.62255314
  },
  "03370": {
    "ciudad": "Redován",
    "provincia": "Alicante/Alacant",
    "pais": "España",
    "lat": -0.90524865,
    "lon": 38.1140353
  },
  "03578": {
    "ciudad": "Relleu",
    "provincia": "Alicante/Alacant",
    "pais": "España",
    "lat": -0.31086389,
    "lon": 38.58727823
  },
  "03170": {
    "ciudad": "Rojales",
    "provincia": "Alicante/Alacant",
    "pais": "España",
    "lat": -0.7231866,
    "lon": 38.08892037
  },
  "03669": {
    "ciudad": "La Romana",
    "provincia": "Alicante/Alacant",
    "pais": "España",
    "lat": -0.8960138,
    "lon": 38.36742371
  },
  "03638": {
    "ciudad": "Salinas",
    "provincia": "Alicante/Alacant",
    "pais": "España",
    "lat": -0.91278122,
    "lon": 38.52006995
  },
  "03550": {
    "ciudad": "Sant Joan D'Alacant",
    "provincia": "Alicante/Alacant",
    "pais": "España",
    "lat": -0.43660694,
    "lon": 38.40151192
  },
  "03193": {
    "ciudad": "San Miguel De Salinas",
    "provincia": "Alicante/Alacant",
    "pais": "España",
    "lat": -0.78930554,
    "lon": 37.97713811
  },
  "03130": {
    "ciudad": "Santa Pola",
    "provincia": "Alicante/Alacant",
    "pais": "España",
    "lat": -0.55528061,
    "lon": 38.1931155
  },
  "03690": {
    "ciudad": "San Vicente Del Raspeig/Sant Vicent Del Raspeig",
    "provincia": "Alicante/Alacant",
    "pais": "España",
    "lat": -0.52499072,
    "lon": 38.39613348
  },
  "03630": {
    "ciudad": "Sax",
    "provincia": "Alicante/Alacant",
    "pais": "España",
    "lat": -0.81692328,
    "lon": 38.53849557
  },
  "03724": {
    "ciudad": "Teulada",
    "provincia": "Alicante/Alacant",
    "pais": "España",
    "lat": 0.10231946,
    "lon": 38.72911733
  },
  "03725": {
    "ciudad": "Teulada",
    "provincia": "Alicante/Alacant",
    "pais": "España",
    "lat": 0.10231946,
    "lon": 38.72911733
  },
  "03109": {
    "ciudad": "Tibi",
    "provincia": "Alicante/Alacant",
    "pais": "España",
    "lat": -0.57799241,
    "lon": 38.53125236
  },
  "03108": {
    "ciudad": "Torremanzanas/La Torre De Les Maçanes",
    "provincia": "Alicante/Alacant",
    "pais": "España",
    "lat": -0.41885176,
    "lon": 38.60676744
  },
  "03180": {
    "ciudad": "Torrevieja",
    "provincia": "Alicante/Alacant",
    "pais": "España",
    "lat": -0.68302608,
    "lon": 37.97775873
  },
  "03181": {
    "ciudad": "Torrevieja",
    "provincia": "Alicante/Alacant",
    "pais": "España",
    "lat": -0.68302608,
    "lon": 37.97775873
  },
  "03182": {
    "ciudad": "Torrevieja",
    "provincia": "Alicante/Alacant",
    "pais": "España",
    "lat": -0.68302608,
    "lon": 37.97775873
  },
  "03183": {
    "ciudad": "Torrevieja",
    "provincia": "Alicante/Alacant",
    "pais": "España",
    "lat": -0.68302608,
    "lon": 37.97775873
  },
  "03184": {
    "ciudad": "Torrevieja",
    "provincia": "Alicante/Alacant",
    "pais": "España",
    "lat": -0.68302608,
    "lon": 37.97775873
  },
  "03185": {
    "ciudad": "Torrevieja",
    "provincia": "Alicante/Alacant",
    "pais": "España",
    "lat": -0.68302608,
    "lon": 37.97775873
  },
  "03186": {
    "ciudad": "Torrevieja",
    "provincia": "Alicante/Alacant",
    "pais": "España",
    "lat": -0.68302608,
    "lon": 37.97775873
  },
  "03188": {
    "ciudad": "Torrevieja",
    "provincia": "Alicante/Alacant",
    "pais": "España",
    "lat": -0.68302608,
    "lon": 37.97775873
  },
  "03788": {
    "ciudad": "Vall De Gallinera",
    "provincia": "Alicante/Alacant",
    "pais": "España",
    "lat": -0.22174105,
    "lon": 38.82200923
  },
  "03789": {
    "ciudad": "La Vall D'Ebo",
    "provincia": "Alicante/Alacant",
    "pais": "España",
    "lat": -0.15985139,
    "lon": 38.80574426
  },
  "03787": {
    "ciudad": "Vall De Gallinera",
    "provincia": "Alicante/Alacant",
    "pais": "España",
    "lat": -0.22174105,
    "lon": 38.82200923
  },
  "03570": {
    "ciudad": "Villajoyosa/La Vila Joiosa",
    "provincia": "Alicante/Alacant",
    "pais": "España",
    "lat": -0.2319288,
    "lon": 38.50545611
  },
  "03400": {
    "ciudad": "Villena",
    "provincia": "Alicante/Alacant",
    "pais": "España",
    "lat": -0.86138343,
    "lon": 38.62963811
  },
  "03408": {
    "ciudad": "Villena",
    "provincia": "Alicante/Alacant",
    "pais": "España",
    "lat": -0.86138343,
    "lon": 38.62963811
  },
  "03639": {
    "ciudad": "Villena",
    "provincia": "Alicante/Alacant",
    "pais": "España",
    "lat": -0.86138343,
    "lon": 38.62963811
  },
  "03779": {
    "ciudad": "Els Poblets",
    "provincia": "Alicante/Alacant",
    "pais": "España",
    "lat": 0.01680187,
    "lon": 38.85116436
  },
  "03190": {
    "ciudad": "Pilar De La Horadada",
    "provincia": "Alicante/Alacant",
    "pais": "España",
    "lat": -0.79242783,
    "lon": 37.86372554
  },
  "03187": {
    "ciudad": "Los Montesinos",
    "provincia": "Alicante/Alacant",
    "pais": "España",
    "lat": -0.74364774,
    "lon": 38.02749921
  },
  "03349": {
    "ciudad": "San Isidro",
    "provincia": "Alicante/Alacant",
    "pais": "España",
    "lat": -0.83836588,
    "lon": 38.17123285
  },
  "04510": {
    "ciudad": "Abla",
    "provincia": "Almería",
    "pais": "España",
    "lat": -2.77953953,
    "lon": 37.1412099
  },
  "04520": {
    "ciudad": "Abrucena",
    "provincia": "Almería",
    "pais": "España",
    "lat": -2.7974669,
    "lon": 37.13218285
  },
  "04533": {
    "ciudad": "Abrucena",
    "provincia": "Almería",
    "pais": "España",
    "lat": -2.7974669,
    "lon": 37.13218285
  },
  "04770": {
    "ciudad": "Adra",
    "provincia": "Almería",
    "pais": "España",
    "lat": -3.02330257,
    "lon": 36.74868325
  },
  "04778": {
    "ciudad": "Adra",
    "provincia": "Almería",
    "pais": "España",
    "lat": -3.02330257,
    "lon": 36.74868325
  },
  "04779": {
    "ciudad": "Paterna Del Río",
    "provincia": "Almería",
    "pais": "España",
    "lat": -2.95313089,
    "lon": 37.02162718
  },
  "04857": {
    "ciudad": "Albánchez",
    "provincia": "Almería",
    "pais": "España",
    "lat": -2.18135854,
    "lon": 37.28686167
  },
  "04858": {
    "ciudad": "Cantoria",
    "provincia": "Almería",
    "pais": "España",
    "lat": -2.19324978,
    "lon": 37.35219371
  },
  "04531": {
    "ciudad": "Alboloduy",
    "provincia": "Almería",
    "pais": "España",
    "lat": -2.62168571,
    "lon": 37.03339629
  },
  "04558": {
    "ciudad": "Gérgal",
    "provincia": "Almería",
    "pais": "España",
    "lat": -2.53905331,
    "lon": 37.12083904
  },
  "04600": {
    "ciudad": "Huércal-Overa",
    "provincia": "Almería",
    "pais": "España",
    "lat": -1.943031,
    "lon": 37.38937619
  },
  "04692": {
    "ciudad": "Taberno",
    "provincia": "Almería",
    "pais": "España",
    "lat": -2.07770837,
    "lon": 37.46930863
  },
  "04800": {
    "ciudad": "Albox",
    "provincia": "Almería",
    "pais": "España",
    "lat": -2.14799133,
    "lon": 37.38850758
  },
  "04812": {
    "ciudad": "Albox",
    "provincia": "Almería",
    "pais": "España",
    "lat": -2.14799133,
    "lon": 37.38850758
  },
  "04813": {
    "ciudad": "Oria",
    "provincia": "Almería",
    "pais": "España",
    "lat": -2.29602131,
    "lon": 37.48360163
  },
  "04814": {
    "ciudad": "Albox",
    "provincia": "Almería",
    "pais": "España",
    "lat": -2.14799133,
    "lon": 37.38850758
  },
  "04480": {
    "ciudad": "Alcolea",
    "provincia": "Almería",
    "pais": "España",
    "lat": -2.96066637,
    "lon": 36.97361957
  },
  "04768": {
    "ciudad": "Berja",
    "provincia": "Almería",
    "pais": "España",
    "lat": -2.94948207,
    "lon": 36.84732147
  },
  "04897": {
    "ciudad": "Serón",
    "provincia": "Almería",
    "pais": "España",
    "lat": -2.50991257,
    "lon": 37.34295293
  },
  "04898": {
    "ciudad": "Serón",
    "provincia": "Almería",
    "pais": "España",
    "lat": -2.50991257,
    "lon": 37.34295293
  },
  "04276": {
    "ciudad": "Benizalón",
    "provincia": "Almería",
    "pais": "España",
    "lat": -2.24067815,
    "lon": 37.21246044
  },
  "04567": {
    "ciudad": "Alhabia",
    "provincia": "Almería",
    "pais": "España",
    "lat": -2.58702093,
    "lon": 36.98991242
  },
  "04400": {
    "ciudad": "Alhama De Almería",
    "provincia": "Almería",
    "pais": "España",
    "lat": -2.56977648,
    "lon": 36.95718281
  },
  "04409": {
    "ciudad": "Huécija",
    "provincia": "Almería",
    "pais": "España",
    "lat": -2.60994487,
    "lon": 36.96802203
  },
  "04001": {
    "ciudad": "Almería",
    "provincia": "Almería",
    "pais": "España",
    "lat": -2.46413188,
    "lon": 36.83892362
  },
  "04002": {
    "ciudad": "Almería",
    "provincia": "Almería",
    "pais": "España",
    "lat": -2.46413188,
    "lon": 36.83892362
  },
  "04003": {
    "ciudad": "Almería",
    "provincia": "Almería",
    "pais": "España",
    "lat": -2.46413188,
    "lon": 36.83892362
  },
  "04004": {
    "ciudad": "Almería",
    "provincia": "Almería",
    "pais": "España",
    "lat": -2.46413188,
    "lon": 36.83892362
  },
  "04005": {
    "ciudad": "Almería",
    "provincia": "Almería",
    "pais": "España",
    "lat": -2.46413188,
    "lon": 36.83892362
  },
  "04006": {
    "ciudad": "Almería",
    "provincia": "Almería",
    "pais": "España",
    "lat": -2.46413188,
    "lon": 36.83892362
  },
  "04007": {
    "ciudad": "Almería",
    "provincia": "Almería",
    "pais": "España",
    "lat": -2.46413188,
    "lon": 36.83892362
  },
  "04008": {
    "ciudad": "Almería",
    "provincia": "Almería",
    "pais": "España",
    "lat": -2.46413188,
    "lon": 36.83892362
  },
  "04009": {
    "ciudad": "Almería",
    "provincia": "Almería",
    "pais": "España",
    "lat": -2.46413188,
    "lon": 36.83892362
  },
  "04120": {
    "ciudad": "Almería",
    "provincia": "Almería",
    "pais": "España",
    "lat": -2.46413188,
    "lon": 36.83892362
  },
  "04130": {
    "ciudad": "Almería",
    "provincia": "Almería",
    "pais": "España",
    "lat": -2.46413188,
    "lon": 36.83892362
  },
  "04131": {
    "ciudad": "Almería",
    "provincia": "Almería",
    "pais": "España",
    "lat": -2.46413188,
    "lon": 36.83892362
  },
  "04150": {
    "ciudad": "Almería",
    "provincia": "Almería",
    "pais": "España",
    "lat": -2.46413188,
    "lon": 36.83892362
  },
  "04160": {
    "ciudad": "Almería",
    "provincia": "Almería",
    "pais": "España",
    "lat": -2.46413188,
    "lon": 36.83892362
  },
  "04458": {
    "ciudad": "Padules",
    "provincia": "Almería",
    "pais": "España",
    "lat": -2.77409853,
    "lon": 36.99862987
  },
  "04568": {
    "ciudad": "Santa Cruz De Marchena",
    "provincia": "Almería",
    "pais": "España",
    "lat": -2.60298289,
    "lon": 37.01700109
  },
  "04628": {
    "ciudad": "Antas",
    "provincia": "Almería",
    "pais": "España",
    "lat": -1.91715315,
    "lon": 37.24459175
  },
  "04629": {
    "ciudad": "Antas",
    "provincia": "Almería",
    "pais": "España",
    "lat": -1.91715315,
    "lon": 37.24459175
  },
  "04660": {
    "ciudad": "Arboleas",
    "provincia": "Almería",
    "pais": "España",
    "lat": -2.0754646,
    "lon": 37.35116011
  },
  "04888": {
    "ciudad": "Bayarque",
    "provincia": "Almería",
    "pais": "España",
    "lat": -2.43594364,
    "lon": 37.33068864
  },
  "04889": {
    "ciudad": "Tíjola",
    "provincia": "Almería",
    "pais": "España",
    "lat": -2.43885542,
    "lon": 37.34438543
  },
  "04479": {
    "ciudad": "Paterna Del Río",
    "provincia": "Almería",
    "pais": "España",
    "lat": -2.95313089,
    "lon": 37.02162718
  },
  "04288": {
    "ciudad": "Los Gallardos",
    "provincia": "Almería",
    "pais": "España",
    "lat": -1.9417002,
    "lon": 37.17027055
  },
  "04289": {
    "ciudad": "Sorbas",
    "provincia": "Almería",
    "pais": "España",
    "lat": -2.124113,
    "lon": 37.09821538
  },
  "04410": {
    "ciudad": "Benahadux",
    "provincia": "Almería",
    "pais": "España",
    "lat": -2.45067345,
    "lon": 36.92496886
  },
  "04274": {
    "ciudad": "Uleila Del Campo",
    "provincia": "Almería",
    "pais": "España",
    "lat": -2.2035137,
    "lon": 37.18525562
  },
  "04569": {
    "ciudad": "Terque",
    "provincia": "Almería",
    "pais": "España",
    "lat": -2.5960885,
    "lon": 36.98374179
  },
  "04713": {
    "ciudad": "Berja",
    "provincia": "Almería",
    "pais": "España",
    "lat": -2.94948207,
    "lon": 36.84732147
  },
  "04760": {
    "ciudad": "Berja",
    "provincia": "Almería",
    "pais": "España",
    "lat": -2.94948207,
    "lon": 36.84732147
  },
  "04769": {
    "ciudad": "Berja",
    "provincia": "Almería",
    "pais": "España",
    "lat": -2.94948207,
    "lon": 36.84732147
  },
  "04450": {
    "ciudad": "Canjáyar",
    "provincia": "Almería",
    "pais": "España",
    "lat": -2.73944378,
    "lon": 37.01006973
  },
  "04815": {
    "ciudad": "Cantoria",
    "provincia": "Almería",
    "pais": "España",
    "lat": -2.19324978,
    "lon": 37.35219371
  },
  "04850": {
    "ciudad": "Cantoria",
    "provincia": "Almería",
    "pais": "España",
    "lat": -2.19324978,
    "lon": 37.35219371
  },
  "04140": {
    "ciudad": "Carboneras",
    "provincia": "Almería",
    "pais": "España",
    "lat": -1.89349648,
    "lon": 36.99742391
  },
  "04149": {
    "ciudad": "Sorbas",
    "provincia": "Almería",
    "pais": "España",
    "lat": -2.124113,
    "lon": 37.09821538
  },
  "04212": {
    "ciudad": "Velefique",
    "provincia": "Almería",
    "pais": "España",
    "lat": -2.40192493,
    "lon": 37.19492499
  },
  "04859": {
    "ciudad": "Líjar",
    "provincia": "Almería",
    "pais": "España",
    "lat": -2.21999131,
    "lon": 37.29501881
  },
  "04610": {
    "ciudad": "Cuevas Del Almanzora",
    "provincia": "Almería",
    "pais": "España",
    "lat": -1.87991806,
    "lon": 37.2967313
  },
  "04616": {
    "ciudad": "Cuevas Del Almanzora",
    "provincia": "Almería",
    "pais": "España",
    "lat": -1.87991806,
    "lon": 37.2967313
  },
  "04617": {
    "ciudad": "Cuevas Del Almanzora",
    "provincia": "Almería",
    "pais": "España",
    "lat": -1.87991806,
    "lon": 37.2967313
  },
  "04618": {
    "ciudad": "Cuevas Del Almanzora",
    "provincia": "Almería",
    "pais": "España",
    "lat": -1.87991806,
    "lon": 37.2967313
  },
  "04619": {
    "ciudad": "Cuevas Del Almanzora",
    "provincia": "Almería",
    "pais": "España",
    "lat": -1.87991806,
    "lon": 37.2967313
  },
  "04647": {
    "ciudad": "Pulpí",
    "provincia": "Almería",
    "pais": "España",
    "lat": -1.745159,
    "lon": 37.41211031
  },
  "04648": {
    "ciudad": "Pulpí",
    "provincia": "Almería",
    "pais": "España",
    "lat": -1.745159,
    "lon": 37.41211031
  },
  "04825": {
    "ciudad": "Chirivel",
    "provincia": "Almería",
    "pais": "España",
    "lat": -2.26658541,
    "lon": 37.59512473
  },
  "04750": {
    "ciudad": "Dalías",
    "provincia": "Almería",
    "pais": "España",
    "lat": -2.87111055,
    "lon": 36.82078429
  },
  "04729": {
    "ciudad": "Enix",
    "provincia": "Almería",
    "pais": "España",
    "lat": -2.60175846,
    "lon": 36.8769393
  },
  "04728": {
    "ciudad": "Felix",
    "provincia": "Almería",
    "pais": "España",
    "lat": -2.65861622,
    "lon": 36.86898567
  },
  "04869": {
    "ciudad": "Fines",
    "provincia": "Almería",
    "pais": "España",
    "lat": -2.263629,
    "lon": 37.35887254
  },
  "04500": {
    "ciudad": "Fiñana",
    "provincia": "Almería",
    "pais": "España",
    "lat": -2.84178852,
    "lon": 37.17135438
  },
  "04460": {
    "ciudad": "Fondón",
    "provincia": "Almería",
    "pais": "España",
    "lat": -2.85918906,
    "lon": 36.97993167
  },
  "04560": {
    "ciudad": "Gádor",
    "provincia": "Almería",
    "pais": "España",
    "lat": -2.49279322,
    "lon": 36.9530923
  },
  "04280": {
    "ciudad": "Los Gallardos",
    "provincia": "Almería",
    "pais": "España",
    "lat": -1.9417002,
    "lon": 37.17027055
  },
  "04630": {
    "ciudad": "Garrucha",
    "provincia": "Almería",
    "pais": "España",
    "lat": -1.82347743,
    "lon": 37.1797194
  },
  "04549": {
    "ciudad": "Gérgal",
    "provincia": "Almería",
    "pais": "España",
    "lat": -2.53905331,
    "lon": 37.12083904
  },
  "04550": {
    "ciudad": "Gérgal",
    "provincia": "Almería",
    "pais": "España",
    "lat": -2.53905331,
    "lon": 37.12083904
  },
  "04559": {
    "ciudad": "Gérgal",
    "provincia": "Almería",
    "pais": "España",
    "lat": -2.53905331,
    "lon": 37.12083904
  },
  "04230": {
    "ciudad": "Huércal De Almería",
    "provincia": "Almería",
    "pais": "España",
    "lat": -2.43599715,
    "lon": 36.88406432
  },
  "04662": {
    "ciudad": "Zurgena",
    "provincia": "Almería",
    "pais": "España",
    "lat": -2.03993235,
    "lon": 37.34234106
  },
  "04690": {
    "ciudad": "Huércal-Overa",
    "provincia": "Almería",
    "pais": "España",
    "lat": -1.943031,
    "lon": 37.38937619
  },
  "04691": {
    "ciudad": "Huércal-Overa",
    "provincia": "Almería",
    "pais": "España",
    "lat": -1.943031,
    "lon": 37.38937619
  },
  "04693": {
    "ciudad": "Huércal-Overa",
    "provincia": "Almería",
    "pais": "España",
    "lat": -1.943031,
    "lon": 37.38937619
  },
  "04694": {
    "ciudad": "Huércal-Overa",
    "provincia": "Almería",
    "pais": "España",
    "lat": -1.943031,
    "lon": 37.38937619
  },
  "04964": {
    "ciudad": "Huércal-Overa",
    "provincia": "Almería",
    "pais": "España",
    "lat": -1.943031,
    "lon": 37.38937619
  },
  "04431": {
    "ciudad": "Íllar",
    "provincia": "Almería",
    "pais": "España",
    "lat": -2.63886001,
    "lon": 36.9849617
  },
  "04430": {
    "ciudad": "Instinción",
    "provincia": "Almería",
    "pais": "España",
    "lat": -2.65979091,
    "lon": 36.99319077
  },
  "04868": {
    "ciudad": "Laroya",
    "provincia": "Almería",
    "pais": "España",
    "lat": -2.3320851,
    "lon": 37.29604768
  },
  "04470": {
    "ciudad": "Láujar De Andarax",
    "provincia": "Almería",
    "pais": "España",
    "lat": -2.88903331,
    "lon": 36.99456726
  },
  "04271": {
    "ciudad": "Sorbas",
    "provincia": "Almería",
    "pais": "España",
    "lat": -2.124113,
    "lon": 37.09821538
  },
  "04114": {
    "ciudad": "Níjar",
    "provincia": "Almería",
    "pais": "España",
    "lat": -2.20611069,
    "lon": 36.96580749
  },
  "04210": {
    "ciudad": "Lucainena De Las Torres",
    "provincia": "Almería",
    "pais": "España",
    "lat": -2.2011865,
    "lon": 37.0402677
  },
  "04211": {
    "ciudad": "Turrillas",
    "provincia": "Almería",
    "pais": "España",
    "lat": -2.26512269,
    "lon": 37.0299004
  },
  "04877": {
    "ciudad": "Somontín",
    "provincia": "Almería",
    "pais": "España",
    "lat": -2.38745675,
    "lon": 37.39094721
  },
  "04887": {
    "ciudad": "Tíjola",
    "provincia": "Almería",
    "pais": "España",
    "lat": -2.43885542,
    "lon": 37.34438543
  },
  "04867": {
    "ciudad": "Macael",
    "provincia": "Almería",
    "pais": "España",
    "lat": -2.30432229,
    "lon": 37.33233031
  },
  "04838": {
    "ciudad": "María",
    "provincia": "Almería",
    "pais": "España",
    "lat": -2.16479793,
    "lon": 37.7115544
  },
  "04839": {
    "ciudad": "Vélez-Blanco",
    "provincia": "Almería",
    "pais": "España",
    "lat": -2.09608111,
    "lon": 37.69085853
  },
  "04638": {
    "ciudad": "Mojácar",
    "provincia": "Almería",
    "pais": "España",
    "lat": -1.85016798,
    "lon": 37.14008707
  },
  "04639": {
    "ciudad": "Turre",
    "provincia": "Almería",
    "pais": "España",
    "lat": -1.89426392,
    "lon": 37.15286446
  },
  "04540": {
    "ciudad": "Nacimiento",
    "provincia": "Almería",
    "pais": "España",
    "lat": -2.64792293,
    "lon": 37.10502345
  },
  "04100": {
    "ciudad": "Níjar",
    "provincia": "Almería",
    "pais": "España",
    "lat": -2.20611069,
    "lon": 36.96580749
  },
  "04110": {
    "ciudad": "Níjar",
    "provincia": "Almería",
    "pais": "España",
    "lat": -2.20611069,
    "lon": 36.96580749
  },
  "04113": {
    "ciudad": "Níjar",
    "provincia": "Almería",
    "pais": "España",
    "lat": -2.20611069,
    "lon": 36.96580749
  },
  "04115": {
    "ciudad": "Níjar",
    "provincia": "Almería",
    "pais": "España",
    "lat": -2.20611069,
    "lon": 36.96580749
  },
  "04116": {
    "ciudad": "Níjar",
    "provincia": "Almería",
    "pais": "España",
    "lat": -2.20611069,
    "lon": 36.96580749
  },
  "04117": {
    "ciudad": "Níjar",
    "provincia": "Almería",
    "pais": "España",
    "lat": -2.20611069,
    "lon": 36.96580749
  },
  "04118": {
    "ciudad": "Níjar",
    "provincia": "Almería",
    "pais": "España",
    "lat": -2.20611069,
    "lon": 36.96580749
  },
  "04119": {
    "ciudad": "Níjar",
    "provincia": "Almería",
    "pais": "España",
    "lat": -2.20611069,
    "lon": 36.96580749
  },
  "04147": {
    "ciudad": "Níjar",
    "provincia": "Almería",
    "pais": "España",
    "lat": -2.20611069,
    "lon": 36.96580749
  },
  "04151": {
    "ciudad": "Níjar",
    "provincia": "Almería",
    "pais": "España",
    "lat": -2.20611069,
    "lon": 36.96580749
  },
  "04188": {
    "ciudad": "Níjar",
    "provincia": "Almería",
    "pais": "España",
    "lat": -2.20611069,
    "lon": 36.96580749
  },
  "04459": {
    "ciudad": "Ohanes",
    "provincia": "Almería",
    "pais": "España",
    "lat": -2.74552024,
    "lon": 37.03829786
  },
  "04860": {
    "ciudad": "Olula Del Río",
    "provincia": "Almería",
    "pais": "España",
    "lat": -2.29735506,
    "lon": 37.3531739
  },
  "04640": {
    "ciudad": "Pulpí",
    "provincia": "Almería",
    "pais": "España",
    "lat": -1.745159,
    "lon": 37.41211031
  },
  "04810": {
    "ciudad": "Partaloa",
    "provincia": "Almería",
    "pais": "España",
    "lat": -2.2262643,
    "lon": 37.40605456
  },
  "04811": {
    "ciudad": "Oria",
    "provincia": "Almería",
    "pais": "España",
    "lat": -2.29602131,
    "lon": 37.48360163
  },
  "04899": {
    "ciudad": "Serón",
    "provincia": "Almería",
    "pais": "España",
    "lat": -2.50991257,
    "lon": 37.34295293
  },
  "04250": {
    "ciudad": "Pechina",
    "provincia": "Almería",
    "pais": "España",
    "lat": -2.44105175,
    "lon": 36.91567505
  },
  "04259": {
    "ciudad": "Pechina",
    "provincia": "Almería",
    "pais": "España",
    "lat": -2.44105175,
    "lon": 36.91567505
  },
  "04649": {
    "ciudad": "Pulpí",
    "provincia": "Almería",
    "pais": "España",
    "lat": -1.745159,
    "lon": 37.41211031
  },
  "04870": {
    "ciudad": "Purchena",
    "provincia": "Almería",
    "pais": "España",
    "lat": -2.36166335,
    "lon": 37.34731041
  },
  "04440": {
    "ciudad": "Rágol",
    "provincia": "Almería",
    "pais": "España",
    "lat": -2.68123514,
    "lon": 36.9953238
  },
  "04260": {
    "ciudad": "Rioja",
    "provincia": "Almería",
    "pais": "España",
    "lat": -2.46389912,
    "lon": 36.94267969
  },
  "04720": {
    "ciudad": "Roquetas De Mar",
    "provincia": "Almería",
    "pais": "España",
    "lat": -2.6150576,
    "lon": 36.76467854
  },
  "04740": {
    "ciudad": "Roquetas De Mar",
    "provincia": "Almería",
    "pais": "España",
    "lat": -2.6150576,
    "lon": 36.76467854
  },
  "04741": {
    "ciudad": "Roquetas De Mar",
    "provincia": "Almería",
    "pais": "España",
    "lat": -2.6150576,
    "lon": 36.76467854
  },
  "04743": {
    "ciudad": "Roquetas De Mar",
    "provincia": "Almería",
    "pais": "España",
    "lat": -2.6150576,
    "lon": 36.76467854
  },
  "04420": {
    "ciudad": "Santa Fe De Mondújar",
    "provincia": "Almería",
    "pais": "España",
    "lat": -2.5313124,
    "lon": 36.97425446
  },
  "04213": {
    "ciudad": "Senés",
    "provincia": "Almería",
    "pais": "España",
    "lat": -2.34726177,
    "lon": 37.20447008
  },
  "04890": {
    "ciudad": "Serón",
    "provincia": "Almería",
    "pais": "España",
    "lat": -2.50991257,
    "lon": 37.34295293
  },
  "04878": {
    "ciudad": "Suflí",
    "provincia": "Almería",
    "pais": "España",
    "lat": -2.39014365,
    "lon": 37.33823085
  },
  "04248": {
    "ciudad": "Sorbas",
    "provincia": "Almería",
    "pais": "España",
    "lat": -2.124113,
    "lon": 37.09821538
  },
  "04270": {
    "ciudad": "Sorbas",
    "provincia": "Almería",
    "pais": "España",
    "lat": -2.124113,
    "lon": 37.09821538
  },
  "04277": {
    "ciudad": "Sorbas",
    "provincia": "Almería",
    "pais": "España",
    "lat": -2.124113,
    "lon": 37.09821538
  },
  "04278": {
    "ciudad": "Sorbas",
    "provincia": "Almería",
    "pais": "España",
    "lat": -2.124113,
    "lon": 37.09821538
  },
  "04279": {
    "ciudad": "Uleila Del Campo",
    "provincia": "Almería",
    "pais": "España",
    "lat": -2.2035137,
    "lon": 37.18525562
  },
  "04200": {
    "ciudad": "Tabernas",
    "provincia": "Almería",
    "pais": "España",
    "lat": -2.39150625,
    "lon": 37.04984427
  },
  "04661": {
    "ciudad": "Zurgena",
    "provincia": "Almería",
    "pais": "España",
    "lat": -2.03993235,
    "lon": 37.34234106
  },
  "04275": {
    "ciudad": "Tíjola",
    "provincia": "Almería",
    "pais": "España",
    "lat": -2.43885542,
    "lon": 37.34438543
  },
  "04659": {
    "ciudad": "Terque",
    "provincia": "Almería",
    "pais": "España",
    "lat": -2.5960885,
    "lon": 36.98374179
  },
  "04880": {
    "ciudad": "Tíjola",
    "provincia": "Almería",
    "pais": "España",
    "lat": -2.43885542,
    "lon": 37.34438543
  },
  "04879": {
    "ciudad": "Urrácal",
    "provincia": "Almería",
    "pais": "España",
    "lat": -2.36518023,
    "lon": 37.39750865
  },
  "04829": {
    "ciudad": "Vélez-Rubio",
    "provincia": "Almería",
    "pais": "España",
    "lat": -2.07415558,
    "lon": 37.64799415
  },
  "04830": {
    "ciudad": "Vélez-Blanco",
    "provincia": "Almería",
    "pais": "España",
    "lat": -2.09608111,
    "lon": 37.69085853
  },
  "04820": {
    "ciudad": "Vélez-Rubio",
    "provincia": "Almería",
    "pais": "España",
    "lat": -2.07415558,
    "lon": 37.64799415
  },
  "04826": {
    "ciudad": "Vélez-Rubio",
    "provincia": "Almería",
    "pais": "España",
    "lat": -2.07415558,
    "lon": 37.64799415
  },
  "04827": {
    "ciudad": "Vélez-Rubio",
    "provincia": "Almería",
    "pais": "España",
    "lat": -2.07415558,
    "lon": 37.64799415
  },
  "04828": {
    "ciudad": "Vélez-Rubio",
    "provincia": "Almería",
    "pais": "España",
    "lat": -2.07415558,
    "lon": 37.64799415
  },
  "04620": {
    "ciudad": "Vera",
    "provincia": "Almería",
    "pais": "España",
    "lat": -1.86877507,
    "lon": 37.24675325
  },
  "04240": {
    "ciudad": "Viator",
    "provincia": "Almería",
    "pais": "España",
    "lat": -2.42781271,
    "lon": 36.88906423
  },
  "04727": {
    "ciudad": "Vícar",
    "provincia": "Almería",
    "pais": "España",
    "lat": -2.64392746,
    "lon": 36.83084658
  },
  "04738": {
    "ciudad": "Vícar",
    "provincia": "Almería",
    "pais": "España",
    "lat": -2.64392746,
    "lon": 36.83084658
  },
  "04650": {
    "ciudad": "Zurgena",
    "provincia": "Almería",
    "pais": "España",
    "lat": -2.03993235,
    "lon": 37.34234106
  },
  "04530": {
    "ciudad": "Las Tres Villas",
    "provincia": "Almería",
    "pais": "España",
    "lat": -2.71216116,
    "lon": 37.13516947
  },
  "04532": {
    "ciudad": "Las Tres Villas",
    "provincia": "Almería",
    "pais": "España",
    "lat": -2.71216116,
    "lon": 37.13516947
  },
  "04700": {
    "ciudad": "El Ejido",
    "provincia": "Almería",
    "pais": "España",
    "lat": -2.81490838,
    "lon": 36.77576137
  },
  "04710": {
    "ciudad": "El Ejido",
    "provincia": "Almería",
    "pais": "España",
    "lat": -2.81490838,
    "lon": 36.77576137
  },
  "04711": {
    "ciudad": "El Ejido",
    "provincia": "Almería",
    "pais": "España",
    "lat": -2.81490838,
    "lon": 36.77576137
  },
  "04712": {
    "ciudad": "El Ejido",
    "provincia": "Almería",
    "pais": "España",
    "lat": -2.81490838,
    "lon": 36.77576137
  },
  "04715": {
    "ciudad": "El Ejido",
    "provincia": "Almería",
    "pais": "España",
    "lat": -2.81490838,
    "lon": 36.77576137
  },
  "04716": {
    "ciudad": "El Ejido",
    "provincia": "Almería",
    "pais": "España",
    "lat": -2.81490838,
    "lon": 36.77576137
  },
  "04745": {
    "ciudad": "La Mojonera",
    "provincia": "Almería",
    "pais": "España",
    "lat": -2.68308803,
    "lon": 36.75456705
  },
  "04746": {
    "ciudad": "La Mojonera",
    "provincia": "Almería",
    "pais": "España",
    "lat": -2.68308803,
    "lon": 36.75456705
  },
  "05296": {
    "ciudad": "Orbita",
    "provincia": "Ávila",
    "pais": "España",
    "lat": -4.64724662,
    "lon": 40.99838127
  },
  "05430": {
    "ciudad": "La Adrada",
    "provincia": "Ávila",
    "pais": "España",
    "lat": -4.63746033,
    "lon": 40.30136381
  },
  "05358": {
    "ciudad": "San Juan De La Encinilla",
    "provincia": "Ávila",
    "pais": "España",
    "lat": -4.83969097,
    "lon": 40.82881844
  },
  "05580": {
    "ciudad": "Santa María De Los Caballeros",
    "provincia": "Ávila",
    "pais": "España",
    "lat": -5.45157451,
    "lon": 40.38817734
  },
  "05212": {
    "ciudad": "Villanueva Del Aceral",
    "provincia": "Ávila",
    "pais": "España",
    "lat": -4.85302538,
    "lon": 41.0416012
  },
  "05593": {
    "ciudad": "La Aldehuela",
    "provincia": "Ávila",
    "pais": "España",
    "lat": -5.40842904,
    "lon": 40.40948687
  },
  "05560": {
    "ciudad": "Villatoro",
    "provincia": "Ávila",
    "pais": "España",
    "lat": -5.11094168,
    "lon": 40.55534171
  },
  "05416": {
    "ciudad": "El Arenal",
    "provincia": "Ávila",
    "pais": "España",
    "lat": -5.08685361,
    "lon": 40.26521196
  },
  "05400": {
    "ciudad": "Arenas De San Pedro",
    "provincia": "Ávila",
    "pais": "España",
    "lat": -5.0911461,
    "lon": 40.20868842
  },
  "05418": {
    "ciudad": "Arenas De San Pedro",
    "provincia": "Ávila",
    "pais": "España",
    "lat": -5.0911461,
    "lon": 40.20868842
  },
  "05153": {
    "ciudad": "El Mirón",
    "provincia": "Ávila",
    "pais": "España",
    "lat": -5.40518728,
    "lon": 40.53167299
  },
  "05200": {
    "ciudad": "Arévalo",
    "provincia": "Ávila",
    "pais": "España",
    "lat": -4.71892472,
    "lon": 41.06550483
  },
  "05340": {
    "ciudad": "Bularros",
    "provincia": "Ávila",
    "pais": "España",
    "lat": -4.86504123,
    "lon": 40.72400997
  },
  "05357": {
    "ciudad": "Villaflor",
    "provincia": "Ávila",
    "pais": "España",
    "lat": -4.87376482,
    "lon": 40.75894553
  },
  "05001": {
    "ciudad": "Ávila",
    "provincia": "Ávila",
    "pais": "España",
    "lat": -4.69771277,
    "lon": 40.65586958
  },
  "05002": {
    "ciudad": "Ávila",
    "provincia": "Ávila",
    "pais": "España",
    "lat": -4.69771277,
    "lon": 40.65586958
  },
  "05003": {
    "ciudad": "Ávila",
    "provincia": "Ávila",
    "pais": "España",
    "lat": -4.69771277,
    "lon": 40.65586958
  },
  "05004": {
    "ciudad": "Ávila",
    "provincia": "Ávila",
    "pais": "España",
    "lat": -4.69771277,
    "lon": 40.65586958
  },
  "05005": {
    "ciudad": "Ávila",
    "provincia": "Ávila",
    "pais": "España",
    "lat": -4.69771277,
    "lon": 40.65586958
  },
  "05160": {
    "ciudad": "Ávila",
    "provincia": "Ávila",
    "pais": "España",
    "lat": -4.69771277,
    "lon": 40.65586958
  },
  "05194": {
    "ciudad": "Mediana De Voltoya",
    "provincia": "Ávila",
    "pais": "España",
    "lat": -4.56260008,
    "lon": 40.70062006
  },
  "05195": {
    "ciudad": "Ávila",
    "provincia": "Ávila",
    "pais": "España",
    "lat": -4.69771277,
    "lon": 40.65586958
  },
  "05197": {
    "ciudad": "Gemuño",
    "provincia": "Ávila",
    "pais": "España",
    "lat": -4.78230282,
    "lon": 40.59292508
  },
  "05600": {
    "ciudad": "El Barco De Ávila",
    "provincia": "Ávila",
    "pais": "España",
    "lat": -5.52704093,
    "lon": 40.35576349
  },
  "05110": {
    "ciudad": "El Barraco",
    "provincia": "Ávila",
    "pais": "España",
    "lat": -4.64114216,
    "lon": 40.47607893
  },
  "05278": {
    "ciudad": "El Tiemblo",
    "provincia": "Ávila",
    "pais": "España",
    "lat": -4.50074945,
    "lon": 40.41568332
  },
  "05229": {
    "ciudad": "San Esteban De Zapardiel",
    "provincia": "Ávila",
    "pais": "España",
    "lat": -4.90123587,
    "lon": 41.09215849
  },
  "05610": {
    "ciudad": "Becedas",
    "provincia": "Ávila",
    "pais": "España",
    "lat": -5.63456079,
    "lon": 40.40515651
  },
  "05694": {
    "ciudad": "Junciana",
    "provincia": "Ávila",
    "pais": "España",
    "lat": -5.55741457,
    "lon": 40.41102429
  },
  "05162": {
    "ciudad": "Las Berlanas",
    "provincia": "Ávila",
    "pais": "España",
    "lat": -4.76116873,
    "lon": 40.80356051
  },
  "05211": {
    "ciudad": "Cisla",
    "provincia": "Ávila",
    "pais": "España",
    "lat": -5.01322747,
    "lon": 40.96529531
  },
  "05146": {
    "ciudad": "Vita",
    "provincia": "Ávila",
    "pais": "España",
    "lat": -5.00595457,
    "lon": 40.81238203
  },
  "05380": {
    "ciudad": "Salvadiós",
    "provincia": "Ávila",
    "pais": "España",
    "lat": -5.09616762,
    "lon": 40.87683079
  },
  "05299": {
    "ciudad": "Moraleja De Matacabras",
    "provincia": "Ávila",
    "pais": "España",
    "lat": -4.95709677,
    "lon": 41.10730121
  },
  "05290": {
    "ciudad": "Sanchidrián",
    "provincia": "Ávila",
    "pais": "España",
    "lat": -4.58156208,
    "lon": 40.89198117
  },
  "05165": {
    "ciudad": "Tiñosillos",
    "provincia": "Ávila",
    "pais": "España",
    "lat": -4.72846115,
    "lon": 40.93452518
  },
  "05630": {
    "ciudad": "Santiago Del Tormes",
    "provincia": "Ávila",
    "pais": "España",
    "lat": -5.39855186,
    "lon": 40.33042306
  },
  "05690": {
    "ciudad": "Los Llanos De Tormes",
    "provincia": "Ávila",
    "pais": "España",
    "lat": -5.49867436,
    "lon": 40.32831194
  },
  "05514": {
    "ciudad": "Tórtoles",
    "provincia": "Ávila",
    "pais": "España",
    "lat": -5.25924223,
    "lon": 40.56176842
  },
  "05570": {
    "ciudad": "Bonilla De La Sierra",
    "provincia": "Ávila",
    "pais": "España",
    "lat": -5.26499051,
    "lon": 40.53083069
  },
  "05140": {
    "ciudad": "Martiherrero",
    "provincia": "Ávila",
    "pais": "España",
    "lat": -4.78179568,
    "lon": 40.67393415
  },
  "05113": {
    "ciudad": "Burgohondo",
    "provincia": "Ávila",
    "pais": "España",
    "lat": -4.78592781,
    "lon": 40.41614328
  },
  "05513": {
    "ciudad": "Burgohondo",
    "provincia": "Ávila",
    "pais": "España",
    "lat": -4.78592781,
    "lon": 40.41614328
  },
  "05217": {
    "ciudad": "San Vicente De Arévalo",
    "provincia": "Ávila",
    "pais": "España",
    "lat": -4.80063719,
    "lon": 40.96798343
  },
  "05148": {
    "ciudad": "Cabezas Del Villar",
    "provincia": "Ávila",
    "pais": "España",
    "lat": -5.21188659,
    "lon": 40.71627838
  },
  "00548": {
    "ciudad": "Candeleda",
    "provincia": "Ávila",
    "pais": "España",
    "lat": -5.23914852,
    "lon": 40.15248281
  },
  "05480": {
    "ciudad": "Candeleda",
    "provincia": "Ávila",
    "pais": "España",
    "lat": -5.23914852,
    "lon": 40.15248281
  },
  "05489": {
    "ciudad": "Candeleda",
    "provincia": "Ávila",
    "pais": "España",
    "lat": -5.23914852,
    "lon": 40.15248281
  },
  "05320": {
    "ciudad": "Cardeñosa",
    "provincia": "Ávila",
    "pais": "España",
    "lat": -4.74363401,
    "lon": 40.74228434
  },
  "05620": {
    "ciudad": "La Carrera",
    "provincia": "Ávila",
    "pais": "España",
    "lat": -5.55514674,
    "lon": 40.34733577
  },
  "05571": {
    "ciudad": "Villafranca De La Sierra",
    "provincia": "Ávila",
    "pais": "España",
    "lat": -5.22997426,
    "lon": 40.49732636
  },
  "05450": {
    "ciudad": "Casavieja",
    "provincia": "Ávila",
    "pais": "España",
    "lat": -4.7658077,
    "lon": 40.27929676
  },
  "05428": {
    "ciudad": "Casillas",
    "provincia": "Ávila",
    "pais": "España",
    "lat": -4.57233428,
    "lon": 40.32320357
  },
  "05429": {
    "ciudad": "Santa María Del Tiétar",
    "provincia": "Ávila",
    "pais": "España",
    "lat": -4.55499216,
    "lon": 40.30401501
  },
  "05260": {
    "ciudad": "Cebreros",
    "provincia": "Ávila",
    "pais": "España",
    "lat": -4.46439928,
    "lon": 40.45477868
  },
  "05132": {
    "ciudad": "San Martín Del Pimpollar",
    "provincia": "Ávila",
    "pais": "España",
    "lat": -5.05612783,
    "lon": 40.36843829
  },
  "05149": {
    "ciudad": "Solana De Rioalmar",
    "provincia": "Ávila",
    "pais": "España",
    "lat": -5.01011096,
    "lon": 40.73792327
  },
  "05192": {
    "ciudad": "La Serrada",
    "provincia": "Ávila",
    "pais": "España",
    "lat": -4.79267984,
    "lon": 40.63147261
  },
  "05309": {
    "ciudad": "Viñegra De Moraña",
    "provincia": "Ávila",
    "pais": "España",
    "lat": -4.92016889,
    "lon": 40.85154867
  },
  "05300": {
    "ciudad": "Crespos",
    "provincia": "Ávila",
    "pais": "España",
    "lat": -4.96994627,
    "lon": 40.87320139
  },
  "05414": {
    "ciudad": "Cuevas Del Valle",
    "provincia": "Ávila",
    "pais": "España",
    "lat": -5.00939452,
    "lon": 40.29420346
  },
  "05141": {
    "ciudad": "Sanchorreja",
    "provincia": "Ávila",
    "pais": "España",
    "lat": -4.91485123,
    "lon": 40.6648407
  },
  "05215": {
    "ciudad": "Sinlabajos",
    "provincia": "Ávila",
    "pais": "España",
    "lat": -4.8319548,
    "lon": 41.07717554
  },
  "05370": {
    "ciudad": "Narros Del Castillo",
    "provincia": "Ávila",
    "pais": "España",
    "lat": -5.0596323,
    "lon": 40.85896048
  },
  "05310": {
    "ciudad": "Fontiveros",
    "provincia": "Ávila",
    "pais": "España",
    "lat": -4.96743565,
    "lon": 40.9302718
  },
  "05427": {
    "ciudad": "Higuera De Las Dueñas",
    "provincia": "Ávila",
    "pais": "España",
    "lat": -4.60112267,
    "lon": 40.23788276
  },
  "05147": {
    "ciudad": "Hurtumpascual",
    "provincia": "Ávila",
    "pais": "España",
    "lat": -5.1109785,
    "lon": 40.69275778
  },
  "05134": {
    "ciudad": "Navalacruz",
    "provincia": "Ávila",
    "pais": "España",
    "lat": -4.93221308,
    "lon": 40.43997747
  },
  "05460": {
    "ciudad": "Gavilanes",
    "provincia": "Ávila",
    "pais": "España",
    "lat": -4.85383975,
    "lon": 40.27685672
  },
  "05640": {
    "ciudad": "Gavilanes",
    "provincia": "Ávila",
    "pais": "España",
    "lat": -4.85383975,
    "lon": 40.27685672
  },
  "05619": {
    "ciudad": "San Bartolomé De Béjar",
    "provincia": "Ávila",
    "pais": "España",
    "lat": -5.66269263,
    "lon": 40.40828588
  },
  "05693": {
    "ciudad": "Umbrías",
    "provincia": "Ávila",
    "pais": "España",
    "lat": -5.58064638,
    "lon": 40.31580964
  },
  "05163": {
    "ciudad": "Peñalba De Ávila",
    "provincia": "Ávila",
    "pais": "España",
    "lat": -4.74734866,
    "lon": 40.77199055
  },
  "05417": {
    "ciudad": "Guisando",
    "provincia": "Ávila",
    "pais": "España",
    "lat": -5.14011248,
    "lon": 40.22196303
  },
  "05164": {
    "ciudad": "Villanueva De Gómez",
    "provincia": "Ávila",
    "pais": "España",
    "lat": -4.71624255,
    "lon": 40.88368722
  },
  "05196": {
    "ciudad": "Tornadizos De Ávila",
    "provincia": "Ávila",
    "pais": "España",
    "lat": -4.61427449,
    "lon": 40.62636604
  },
  "05268": {
    "ciudad": "Santa Cruz De Pinares",
    "provincia": "Ávila",
    "pais": "España",
    "lat": -4.57937886,
    "lon": 40.54221491
  },
  "05294": {
    "ciudad": "Herradón De Pinares",
    "provincia": "Ávila",
    "pais": "España",
    "lat": -4.56022994,
    "lon": 40.56531144
  },
  "05131": {
    "ciudad": "Narros Del Puerto",
    "provincia": "Ávila",
    "pais": "España",
    "lat": -4.98967711,
    "lon": 40.5406329
  },
  "05695": {
    "ciudad": "La Horcajada",
    "provincia": "Ávila",
    "pais": "España",
    "lat": -5.46643139,
    "lon": 40.43530535
  },
  "05696": {
    "ciudad": "San Lorenzo De Tormes",
    "provincia": "Ávila",
    "pais": "España",
    "lat": -5.48740524,
    "lon": 40.3707565
  },
  "05210": {
    "ciudad": "San Juan De La Encinilla",
    "provincia": "Ávila",
    "pais": "España",
    "lat": -4.83969097,
    "lon": 40.82881844
  },
  "05415": {
    "ciudad": "El Hornillo",
    "provincia": "Ávila",
    "pais": "España",
    "lat": -5.10365524,
    "lon": 40.2499538
  },
  "05123": {
    "ciudad": "Navalosa",
    "provincia": "Ávila",
    "pais": "España",
    "lat": -4.93118074,
    "lon": 40.40182635
  },
  "05250": {
    "ciudad": "El Hoyo De Pinares",
    "provincia": "Ávila",
    "pais": "España",
    "lat": -4.4227064,
    "lon": 40.50212632
  },
  "05516": {
    "ciudad": "Villar De Corneja",
    "provincia": "Ávila",
    "pais": "España",
    "lat": -5.43253663,
    "lon": 40.47509037
  },